rank,Latitude,Longitude,Name of City,Country,2021 Population,2020 Population,Growth,Population Difference,Population Change,SO2,NO2,PM10,PM2.5,O3,CO
1,35.6828387,139.7594549,Tokyo,Japan,37339804,37393128,-0.0014,53324,declined,13.95,94.59,29.18,26.07,0,534.06
2,28.6517178,77.2219388,Delhi,India,31181376,30290936,0.0294,890440,grew,11.92,14.05,75.16,50.91,88.69,547.41
3,31.2322758,121.4692071,Shanghai,China,27795702,27058480,0.0272,737222,grew,19.31,18.85,38.43,21.04,67.95,373.84
4,-23.5506507,-46.6333824,Sao Paulo,Brazil,22237472,22043028,0.0088,194444,grew,5.19,10.88,17.71,10.8,120.16,377.18
5,19.4326296,-99.1331785,Mexico City,Mexico,21918936,21782378,0.0063,136558,grew,26.46,7.28,28.5,24.45,191.69,567.44
6,23.7861979,90.4026151,Dhaka,Bangladesh,21741090,21005860,0.035,735230,grew,5.07,44.55,179.8,144.65,13.59,1655.58
7,30.0443879,31.2357257,Cairo,Egypt,21322750,20900604,0.0202,422146,grew,23.84,16.62,10.54,4.51,72.24,273.71
8,39.906217,116.3912757,Beijing,China,20896820,20462610,0.0212,434210,grew,74.39,72.66,136.85,95.05,0.01,1255.04
9,19.0759899,72.8773928,Mumbai,India,20667656,20411274,0.0126,256382,grew,63.9,27.08,118.33,88.84,100.14,847.82
10,34.6198813,135.490357,Osaka,Japan,19110616,19165340,-0.0029,54724,declined,4.53,17.99,8.84,7.49,58.65,323.77
11,24.8546842,67.0207055,Karachi,Pakistan,16459472,16093786,0.0227,365686,grew,23.84,97.33,292.21,220.17,0.03,3631.59
12,29.5647398,106.5478767,Chongqing,China,16382376,15872179,0.0321,510197,grew,34.81,41.13,63.83,54,22.53,660.9
13,41.0096334,28.9651646,Istanbul,Turkey,15415197,15190336,0.0148,224861,grew,6.32,4.88,9.03,6.69,80.82,280.38
14,-34.6075682,-58.4370894,Buenos Aires,Argentina,15257673,15153729,0.0069,103944,grew,16.93,10.45,56.48,11.25,44.7,290.39
15,22.5414185,88.3576912,Kolkata,India,14974073,14850066,0.0084,124007,grew,28.85,77.46,400.57,322.4,6.17,3177.64
16,-4.3217055,15.3125974,Kinshasa,DR Congo,14970460,14342439,0.0438,628021,grew,5.13,26.73,123.28,45.98,0.43,1415.25
17,6.4550575,3.3941795,Lagos,Nigeria,14862111,14368332,0.0344,493779,grew,4.29,9.6,54.54,23.17,10.55,907.9
18,14.5907332,120.9809674,Manila,Philippines,14158573,13923452,0.0169,235121,grew,30.04,48.67,62.3,37.53,10.55,1201.63
19,39.0856735,117.1951073,Tianjin,China,13794450,13589078,0.0151,205372,grew,44.35,44.55,75.62,44.19,31.83,674.25
20,23.1301964,113.2592945,Guangzhou,China,13635397,13301532,0.0251,333865,grew,30.04,54.15,107.02,98.17,10.82,894.55
21,-22.9110137,-43.2093727,Rio de Janeiro,Brazil,13544462,13458075,0.0064,86387,grew,15.5,22.28,28.44,9.4,117.3,487.33
22,31.5656822,74.3141829,Lahore,Pakistan,13095166,12642423,0.0358,452743,grew,4.65,40.78,259.13,183.55,1.04,1922.61
23,12.9767936,77.590082,Bangalore,India,12764935,12326532,0.0356,438403,grew,13.95,34.62,42.7,35.22,62.94,754.36
24,55.7504461,37.6174943,Moscow,Russia,12593252,12537954,0.0044,55298,grew,22.17,38.04,7.79,5.43,31.83,337.12
25,22.555454,114.0543297,Shenzhen,China,12591696,12356820,0.019,234876,grew,69.62,54.84,139.01,124.15,18.24,854.49
26,13.0836939,80.270186,Chennai,India,11235018,10971108,0.0241,263910,grew,25.51,90.48,205.67,159.68,0.28,2403.26
27,4.6533326,-74.083652,Bogota,Colombia,11167392,10978360,0.0172,189032,grew,2,13.02,14.13,11.44,66.52,500.68
28,48.8588897,2.320041,Paris,France,11078546,11017230,0.0056,61316,grew,6.44,57.58,47.01,42.21,4.16,747.68
29,-6.1753942,106.827183,Jakarta,Indonesia,10915364,10770487,0.0135,144877,grew,11.8,30.16,111.13,58.45,0,2563.48
30,-12.0621065,-77.0365256,Lima,Peru,10882757,10719188,0.0153,163569,grew,7.57,13.71,38.74,22.67,86.55,433.92
31,13.7525438,100.4934734,Bangkok,Thailand,10722815,10539415,0.0174,183400,grew,28.37,94.59,322.52,240.04,7.06,3124.24
32,17.360589,78.4740613,Hyderabad,India,10268653,10004144,0.0264,264509,grew,42.44,101.45,221.7,188.17,0.04,3017.43
33,37.5666791,126.9782914,Seoul,South Korea,9967677,9963452,0.0004,4225,grew,30.52,31.19,21.43,15.68,41.49,433.92
34,35.1851045,136.8998438,Nagoya,Japan,9565642,9552132,0.0014,13510,grew,5.13,38.73,10.15,9.03,23.25,327.11
35,51.5073219,-0.1276474,London,United Kingdom,9425622,9304016,0.0131,121606,grew,7.87,33.59,8.84,8.1,13.77,403.88
36,30.6598628,104.0633717,Chengdu,China,9305116,9135768,0.0185,169348,grew,25.99,62.38,166.7,116.15,0.05,1335.14
37,35.6892523,51.3896004,Tehran,Iran,9259009,9134708,0.0136,124301,grew,244.14,367.4,175.05,155.3,0,3578.19
38,32.0437711,118.7788734,Nanjing,China,9143980,8847372,0.0335,296608,grew,24.08,65.12,102.92,81.88,12.88,761.03
39,10.7715512,106.6983801,Ho Chi Minh City,Vietnam,8837544,8602317,0.0273,235227,grew,49.11,56.89,103.92,83.78,0.2,1668.93
40,-8.8272699,13.2439512,Luanda,Angola,8631876,8329798,0.0363,302078,grew,5.66,8.65,21.01,5.75,9.92,460.63
41,30.5951051,114.2999353,Wuhan,China,8473405,8364977,0.013,108428,grew,52.93,89.11,162.29,137.2,2.84,1054.76
42,34.3430507,108.9350839,Xi-an Shaanxi,China,8274651,8000965,0.0342,273686,grew,72.48,69.92,268.45,175.31,0.01,2056.12
43,23.0216238,72.5797068,Ahmedabad,India,8253226,8059441,0.024,193785,grew,6.44,17.14,106.36,69.1,75.82,600.82
44,40.7127281,-74.0060152,New York City,United States,8230290,8283550,-0.0064,53260,declined,16.21,58.26,50.57,44.28,57.94,580.79
45,3.1516964,101.6942371,Kuala Lumpur,Malaysia,8210745,7996830,0.0267,213915,grew,27.42,131.61,164.38,124.62,0,4112.24
46,30.2489634,120.2052342,Hangzhou,China,7845501,7642147,0.0266,203354,grew,43.39,112.41,147.27,128.51,0,1054.76
47,22.2793278,114.1628131,Hong Kong,Hong Kong,7598189,7547652,0.0067,50537,grew,112.53,71.97,124.99,107.97,2.95,947.95
48,45.9383,3.2553,Surat,India,7489742,7184590,0.0425,305152,grew,0.62,16.97,5.79,4.55,29.68,297.07
49,23.0205969,113.7457788,Dongguan,China,7451889,7407852,0.0059,44037,grew,9.42,11.65,110.97,103.58,54.36,614.17
50,31.3016935,120.5810725,Suzhou,China,7427096,7069992,0.0505,357104,grew,25.75,51.41,53.4,42.66,33.62,547.41
51,23.0247687,113.1146335,Foshan,China,7406751,7326852,0.0109,79899,grew,28.85,76.77,87.92,80.66,0.58,1041.41
52,24.638916,46.7160104,Riyadh,Saudi Arabia,7387817,7231447,0.0216,156370,grew,69.62,52.09,255.24,51.44,60.8,307.08
53,41.6749893,123.458674,Shenyang,China,7373655,7220104,0.0213,153551,grew,59.13,73.34,146.4,103.44,0.01,1708.98
54,33.3024309,44.3787992,Baghdad,Iraq,7323079,7144260,0.025,178819,grew,56.74,111.04,49,22.84,0,2296.45
55,-6.8160837,39.2803583,Dar es Salaam,Tanzania,7046892,6701650,0.0515,345242,grew,2.77,5.31,20.23,8.93,32.54,540.73
56,9.8694792,-83.7980749,Santiago,Chile,6811595,6767223,0.0066,44372,grew,0.18,1.36,1.73,0.94,32.19,173.57
57,18.521428,73.8544541,Pune,India,6807984,6629347,0.0269,178637,grew,25.75,61.01,93.83,55.23,15.02,1174.93
58,40.4167047,-3.7035825,Madrid,Spain,6668865,6617513,0.0078,51352,grew,1.71,19.88,6.04,4.64,52.93,347.14
59,45.7988273,126.5303997,Haerbin,China,6526439,6387195,0.0218,139244,grew,7.99,12,27.36,21.24,54.36,473.98
60,43.6534817,-79.3839347,Toronto,Canada,6254571,6196731,0.0093,57840,grew,10.73,14.74,6.97,3.86,65.09,373.84
61,-19.9227318,-43.9450948,Belo Horizonte,Brazil,6139774,6084430,0.0091,55344,grew,3.64,4.24,3.65,0.98,42.56,270.37
62,1.357107,103.8194992,Singapore,Singapore,5991801,5935053,0.0096,56748,grew,5.96,12.68,24.5,17.7,36.84,383.85
63,15.5635972,32.5349123,Khartoum,Sudan,5989024,5828858,0.0275,160166,grew,1.48,1.46,143.94,30.46,87.98,270.37
64,-26.205,28.049722,Johannesburg,South Africa,5926668,5782747,0.0249,143921,grew,28.61,41.13,31.59,16.98,14.31,654.22
65,38.9181714,121.6282945,Dalian,China,5775938,5617849,0.0281,158089,grew,33.85,23.65,29.5,15.76,53.64,373.84
66,36.0638034,120.3781372,Qingdao,China,5742486,5619977,0.0218,122509,grew,44.35,47.3,68.48,43.41,22.17,687.6
67,41.3828939,2.1774322,Barcelona,Spain,5624498,5585556,0.007,38942,grew,3.82,93.22,24.04,19.62,0.48,854.49
68,33.6251241,130.6180016,Fukuoka,Japan,5516158,5528632,-0.0023,12474,declined,1.86,5.18,5.63,3.27,85.12,287.06
69,36.6507007,117.1140042,Ji-nan Shandong,China,5513597,5360185,0.0286,153412,grew,93.46,91.85,111.46,82.01,3,1041.41
70,34.7487244,113.6191483,Zhengzhou,China,5510341,5322696,0.0353,187645,grew,79.16,67.17,120.21,55.25,26.46,634.19
71,59.938732,30.316229,Saint Petersburg,Russia,5504305,5467808,0.0067,36497,grew,25.27,47.3,6.75,5.61,22.35,363.83
72,16.7967129,96.1609916,Yangon,Myanmar,5421806,5331800,0.0169,90006,grew,3.37,12.17,136.37,119.47,56.51,1081.47
73,31.199004,29.894378,Alexandria,Egypt,5381101,5280664,0.019,100437,grew,0.79,0.91,9.51,2.02,98.71,243.66
74,5.320357,-4.016107,Abidjan,Ivory Coast,5354826,5202762,0.0292,152064,grew,0.89,1.89,29.64,2.98,31.11,407.22
75,20.6720375,-103.338396,Guadalajara,Mexico,5259296,5179479,0.0154,79817,grew,2.27,1.69,9.67,8.55,90.12,267.03
76,39.9207886,32.8540482,Ankara,Turkey,5215747,5117603,0.0192,98144,grew,63.9,87.74,129.6,115.16,0,1028.06
77,22.3364709,91.8260479,Chittagong,Bangladesh,5132751,5019824,0.0225,112927,grew,3.19,16.97,97.78,84.35,75.82,667.57
78,-37.8142176,144.9631608,Melbourne,Australia,5061439,4967733,0.0189,93706,grew,2.03,3.51,2.76,2.42,51.5,273.71
79,9.0107934,38.7612525,Addis Ababa,Ethiopia,5005524,4793699,0.0442,211825,grew,3.34,3.64,63.06,20.54,36.84,1214.98
80,-33.768528,150.956856,Sydney,Australia,4991654,4925987,0.0133,65667,grew,4.95,10.97,6.82,5.78,11.09,213.62
81,25.6802019,-100.315258,Monterrey,Mexico,4955506,4874095,0.0167,81411,grew,6.56,8.48,10.31,7.08,110.15,390.53
82,-1.2832533,36.8172449,Nairobi,Kenya,4922192,4734881,0.0396,187311,grew,3.43,4.93,15.15,6.43,31.47,467.3
83,21.0294498,105.8544441,Hanoi,Vietnam,4874982,4678198,0.0421,196784,grew,15.5,57.58,222.63,180.92,0,2883.91
84,-10.3333333,-53.2,Brasilia,Brazil,4727902,4645843,0.0177,82059,grew,0,0.03,0.51,0.5,10.64,250.34
85,-33.928992,18.417396,Cape Town,South Africa,4709990,4617560,0.02,92430,grew,2.53,5.74,11.44,3.46,16.99,243.66
86,21.5810088,39.1653612,Jiddah,Saudi Arabia,4696535,4610176,0.0187,86359,grew,2.92,0.9,31.12,8.94,111.58,220.3
87,28.2302056,112.9335861,Changsha,China,4694722,4577723,0.0256,116999,grew,59.61,112.41,151.43,127.38,0,1041.41
88,24.8843019,102.8324209,Kunming,China,4550831,4443186,0.0242,107645,grew,16.69,24.68,35.48,28.4,35.76,500.68
89,43.419754,87.319461,Urumqi,China,4543684,4368865,0.04,174819,grew,11.09,30.16,61.13,38.08,47.21,520.71
90,43.8130735,125.3171216,Changchun,China,4520695,4425761,0.0215,94934,grew,6.44,7.37,11.69,7.43,64.37,330.45
91,31.8644668,119.9562502,Xinbei,Taiwan,4434905,4398383,0.0083,36522,grew,12.99,87.05,121.07,101,0.4,1001.36
92,23.356377,116.6775918,Shantou,China,4407928,4327316,0.0186,80612,grew,36.72,45.93,126.57,120.33,0,1895.91
93,31.8228094,117.2218033,Hefei,China,4371005,4241514,0.0305,129491,grew,26.46,80.88,146.29,123.33,6.35,1041.41
94,34.5260109,69.1776838,Kabul,Afghanistan,4335770,4221532,0.0271,114238,grew,1.09,12,15.31,10.82,92.98,1108.17
95,41.8933203,12.4829321,Rome,Italy,4278350,4257056,0.005,21294,grew,6.08,53.47,26.58,25.59,32.54,754.36
96,29.8622194,121.6203873,Ningbo,China,4263843,4116209,0.0359,147634,grew,26.7,61.69,77.17,69,15.74,687.6
97,32.0852997,34.7818064,Tel Aviv,Israel,4263745,4181479,0.0197,82266,grew,0.6,0.22,3.93,1.41,108.72,230.31
98,45.5031824,-73.5698065,Montreal,Canada,4247446,4220566,0.0064,26880,grew,32.9,25.36,17.93,12.52,43.63,554.09
99,38.0429742,114.5088385,Shijiazhuang,China,4199392,4114393,0.0207,84999,grew,44.35,40.1,76.08,31.14,42.92,433.92
100,-8.0584933,-34.8848193,Recife,Brazil,4174774,4127091,0.0116,47683,grew,6.91,9.43,12.11,3.55,25.75,333.79
101,3.8689867,11.5213344,Yaounde,Cameroon,4164167,3992411,0.043,171756,grew,1.21,4.24,33.88,17.43,26.82,560.76
102,-30.0324999,-51.2303767,Porto Alegre,Brazil,4160682,4137417,0.0056,23265,grew,1.01,2.16,6.82,4.89,68.67,363.83
103,-3.7304512,-38.5217989,Fortaleza,Brazil,4119633,4073465,0.0113,46168,grew,0.38,0.7,2.43,0.67,27.9,250.34
104,49.1813403,-0.3635615,Kano,Nigeria,4103015,3999050,0.026,103965,grew,4.95,11.14,13.58,12.88,61.51,357.15
105,6.2443382,-75.573553,Medellin,Colombia,4033783,4000263,0.0084,33520,grew,2,1.65,16.14,13.35,90.12,313.76
106,26.9154576,75.8189817,Jaipur,India,4007505,3909333,0.0251,98172,grew,8.7,31.53,83.86,57.5,45.06,821.11
107,34.0536909,-118.242766,Los Angeles,United States,3983540,3981560,0.0005,1980,grew,12.04,86.37,51.14,42.66,13.23,660.9
108,37.870009,112.5452739,Taiyuan Shanxi,China,3975985,3891127,0.0218,84858,grew,12.76,10.71,68.12,22.95,65.8,303.75
109,22.8193063,108.3627211,Nanning,China,3974322,3859608,0.0297,114714,grew,3.07,17.14,72.2,69.25,22.89,700.95
110,-26.184765,28.3210725,Ekurhuleni,South Africa,3969937,3894262,0.0194,75675,grew,13.83,29.13,24.35,9.52,12.52,473.98
111,13.8000382,-88.9140683,Salvador,Brazil,3880314,3839076,0.0107,41238,grew,2.83,0.52,4.2,3.59,69.38,223.64
112,33.5950627,-7.6187768,Casablanca,Morocco,3793585,3752357,0.011,41228,grew,2.5,1.78,6.39,2.15,97.28,220.3
113,4.0429408,9.706203,Douala,Cameroon,3793363,3663227,0.0355,130136,grew,0.89,1.33,8.72,4.41,25.75,400.54
114,24.4801069,118.0853479,Xiamen,China,3790792,3720141,0.019,70651,grew,18.84,65.12,117.36,115.23,1.72,1308.44
115,26.8381,80.9346001,Lucknow,India,3764619,3676515,0.024,88104,grew,22.41,6.26,107.9,87.81,123.02,600.82
116,26.0774954,119.2918215,Fuzhou Fujian,China,3764559,3685701,0.0214,78858,grew,21.22,55.52,107.81,95.13,10.19,754.36
117,31.8122623,119.9691539,Changzhou,China,3749712,3625328,0.0343,124384,grew,12.99,87.05,121.07,101,0.4,1001.36
118,11.2450558,75.7754716,Kozhikode,India,3742198,3555411,0.0525,186787,grew,2.65,4.03,133.18,114.28,91.55,694.28
119,-25.4295963,-49.2712724,Curitiba,Brazil,3726050,3678732,0.0129,47318,grew,2.03,4.2,6.12,4.11,68.67,297.07
120,27.9963899,120.695345,Wenzhou,China,3725342,3623646,0.0281,101696,grew,19.79,86.37,118.13,113.72,0.12,988.01
121,28.687547,115.8540042,Nanchang,China,3709958,3598421,0.031,111537,grew,25.99,78.83,155.97,143.33,6.62,988.01
122,7.3777462,3.8972497,Ibadan,Nigeria,3649023,3551961,0.0273,97062,grew,5.25,9,101.78,52.97,98.71,961.3
123,11.1068448,76.1099551,Malappuram,India,3608928,3391277,0.0642,217651,grew,6.91,22.62,135.71,115.51,38.27,1041.41
124,52.5170365,13.3888599,Berlin,Germany,3566791,3562038,0.0013,4753,grew,14.42,36.67,28.88,25.45,39.34,427.25
125,39.6295591,118.1738665,Tangshan Hebei,China,3562719,3425638,0.04,137081,grew,41.49,80.88,85.09,53.19,0.2,907.9
126,31.4220558,73.0923253,Faisalabad,Pakistan,3542020,3462295,0.023,79725,grew,3.01,42.5,166.27,116.53,5.9,1628.88
127,-18.9100122,47.5255809,Antananarivo,Madagascar,3531887,3368585,0.0485,163302,grew,2.8,10.2,58.45,46.58,1.7,1388.55
128,-6.2349858,106.9945444,Bekasi,Indonesia,3510050,3394273,0.0341,115777,grew,24.32,49.35,372.85,218.09,0,7797.24
129,6.698081,-1.6230404,Kumasi,Ghana,3490030,3348062,0.0424,141968,grew,4.29,3.86,63.9,23.82,82.25,527.38
130,0.3177137,32.5813539,Kampala,Uganda,3469510,3298364,0.0519,171146,grew,0.83,2.72,19.11,9.26,29.68,467.3
131,35.1799528,129.0752365,Busan,South Korea,3465946,3465190,0.0002,756,grew,11.8,10.71,6.3,4.98,68.67,293.73
132,9.0643305,7.4892974,Abuja,Nigeria,3464123,3277740,0.0569,186383,grew,2.24,23.65,134.75,51.85,40.41,827.79
133,25.7561647,112.72964,Guiyang,China,3407463,3317110,0.0272,90353,grew,20.74,86.37,125.19,117.78,0.38,934.6
134,-25.2800459,-57.6343814,Asuncion,Paraguay,3394309,3336562,0.0173,57747,grew,0.11,0.28,2.97,1.02,42.92,267.03
135,18.4801972,-69.942111,Santo Domingo,Dominican Republic,3388809,3317784,0.0214,71025,grew,5.07,2.59,3.94,1.57,81.54,230.31
136,-22.90556,-47.06083,Campinas,Brazil,3343816,3300794,0.013,43022,grew,3.64,4.93,12.91,10.24,105.86,327.11
137,31.4933074,120.3074357,Wuxi,China,3315113,3256020,0.0181,59093,grew,28.85,56.21,78.59,64.24,23.96,727.65
138,36.2974945,59.6059232,Mashhad,Iran,3264101,3208336,0.0174,55765,grew,69.62,175.48,37.07,27.71,0,3044.13
139,18.833333,-98,Puebla,Mexico,3244710,3194848,0.0156,49862,grew,3.64,1.04,10.82,9.5,87.98,260.35
140,14.693425,-17.447938,Dakar,Senegal,3229800,3140442,0.0285,89358,grew,1.19,1.63,125.25,40.61,92.98,208.62
141,10.5256264,76.2132542,Thrissur,India,3212604,3068164,0.0471,144440,grew,6.68,25.02,164.33,133.13,52.21,1001.36
142,9.931308,76.2674136,Kochi,India,3193029,3082055,0.036,110974,grew,6.08,9.34,73.64,61.03,111.58,540.73
143,29.3797091,47.9735629,Kuwait City,Kuwait,3177315,3114553,0.0202,62762,grew,63.9,44.55,17.64,14.14,52.93,307.08
144,-29.861825,31.009909,Durban,South Africa,3176254,3158313,0.0057,17941,grew,5.13,4.5,8.61,3.31,28.25,267.03
145,4.7676576,7.0188527,Port Harcourt,Nigeria,3171076,3020232,0.0499,150844,grew,4.53,8.23,32.62,20.56,17.88,787.74
146,36.0620781,103.8318566,Lanzhou,China,3153808,3080522,0.0238,73286,grew,28.37,55.52,83.51,35.08,9.57,1014.71
147,26.4609135,80.3217588,Kanpur,India,3153425,3123990,0.0094,29435,grew,15.5,6.77,114.18,94.54,118.73,674.25
148,37.9839412,23.7283052,Athens,Greece,3153255,3153355,0,100,declined,12.28,20.74,8.63,6.23,75.1,427.25
149,45.4641943,9.1896346,Milan,Italy,3144473,3140181,0.0014,4292,grew,8.35,54.15,122.28,115.4,0,2910.61
150,22.7203616,75.8681996,Indore,India,3113445,3016713,0.0321,96732,grew,4.83,24.68,85.44,62.98,50.07,727.65
151,39.0167979,125.7473609,Pyongyang,North Korea,3108108,3084244,0.0077,23864,grew,53.41,42.5,49.59,36.49,27.9,754.36
152,15.260691,44.424895,Sanaa,Yemen,3075257,2972988,0.0344,102269,grew,10.85,5.23,16.68,3.88,52.93,195.27
153,-2.2895167,-80.0983887,Guayaquil,Ecuador,3042941,2994218,0.0163,48723,grew,1.16,1.21,0.73,0.56,26.11,263.69
154,38.4147331,27.1434119,Izmir,Turkey,3024020,2992953,0.0104,31067,grew,7.99,10.63,10.09,8.27,66.52,323.77
155,50.4500336,30.5241361,Kiev,Ukraine,3000604,2988176,0.0042,12428,grew,30.28,89.11,33.99,28.8,0.03,540.73
156,14.6222328,-90.5185188,Guatemala City,Guatemala,2983174,2934841,0.0165,48333,grew,41.96,7.28,50.95,47.08,128.75,687.6
157,-7.2459717,112.7378266,Surabaya,Indonesia,2972091,2944403,0.0094,27688,grew,5.19,16.97,59.54,37.93,0.01,1255.04
158,38.7077507,-9.1365919,Lisbon,Portugal,2971587,2956879,0.005,14708,grew,3.64,31.19,13.89,8.88,57.22,447.27
159,10.506098,-66.9146017,Caracas,Venezuela,2945858,2938992,0.0023,6866,grew,11.09,4.93,3.31,1.53,75.82,230.31
160,22.5213807,113.3656141,Zhongshan,China,2941522,2913974,0.0095,27548,grew,55.79,73.34,143.89,130.1,1.17,1054.76
161,21.1498134,79.0820556,Nagpur,India,2940487,2893455,0.0163,47032,grew,5.6,5.23,59.56,47.58,85.83,433.92
162,34.979149,138.38299,Shizuoka,Japan,2930341,2922320,0.0027,8021,grew,1.06,6.94,1.62,1.56,81.54,270.37
163,25.2653471,55.2924914,Dubai,United Arab Emirates,2921376,2878344,0.015,43032,grew,8.23,35.64,55.67,20.32,45.06,350.48
164,12.3681873,-1.5270944,Ouagadougou,Burkina Faso,2914619,2780331,0.0483,134288,grew,3.7,8.48,136.48,56.78,55.79,734.33
165,-15.4164488,28.2821535,Lusaka,Zambia,2905993,2774133,0.0475,131860,grew,7.87,13.54,69.81,44.81,0.31,2910.61
166,11.0018115,76.9628425,Coimbatore,India,2860445,2786600,0.0265,73845,grew,6.08,12.17,55.02,42.8,72.24,554.09
167,18.547327,-72.3395928,Port-au-Prince,Haiti,2843925,2773553,0.0254,70372,grew,4.53,3.86,13.86,8.67,113.01,423.91
168,-6.4071903,106.8158348,Depok,Indonesia,2836941,2727209,0.0402,109732,grew,12.4,32.56,180.3,90.77,0,3177.64
169,36.583333,114.483333,Handan,China,2824345,2726835,0.0358,97510,grew,51.5,54.84,111.47,61.87,21.64,934.6
170,37.456,126.7052,Incheon,South Korea,2818288,2801039,0.0062,17249,grew,18.12,15.08,17.85,12.73,56.51,367.17
171,3.4517923,-76.5324943,Cali,Colombia,2809508,2781980,0.0099,27528,grew,0.32,0.74,3.12,2.59,42.56,220.3
172,36.7753606,3.0601882,Algiers,Algeria,2809158,2767661,0.015,41497,grew,3.55,27.76,9.62,5.77,62.23,280.38
173,33.5524785,119.1075773,Huaian,China,2770106,2655320,0.0432,114786,grew,41.49,71.29,101.27,74.22,1.4,1028.06
174,53.4794892,-2.2451148,Manchester,United Kingdom,2750120,2730076,0.0073,20044,grew,4.47,23.31,6.65,5.9,47.92,313.76
175,-16.680882,-49.2532691,Goiania,Brazil,2747887,2690011,0.0215,57876,grew,2.8,7.03,3.52,1.27,35.76,287.06
176,36.7071591,119.1557441,Weifang,China,2746160,2653989,0.0347,92171,grew,71.53,61.69,74.4,49.89,23.96,734.33
177,25.0375198,121.5636796,Taibei,Taiwan,2731208,2721485,0.0036,9723,grew,30.04,109.67,87.71,85.71,0,1428.6
178,12.6132655,-7.9847391,Bamako,Mali,2713230,2617686,0.0365,95544,grew,0.87,0.91,172.36,61,56.51,357.15
179,8.5241122,76.9360573,Thiruvananthapuram,India,2690703,2584752,0.041,105951,grew,9.66,14.05,75.56,54.89,89.41,600.82
180,36.819626,117.980675,Zibo,China,2685108,2639735,0.0172,45373,grew,44.82,68.55,81.25,54.47,17.35,807.76
181,41.8755616,-87.6244212,Chicago,United States,2679080,2686530,-0.0028,7450,declined,2.77,11.14,4.54,3.9,78.68,303.75
182,43.061936,141.3542924,Sapporo,Japan,2670121,2669680,0.0002,441,grew,0.57,4.28,3,2.88,74.39,373.84
183,-25.7459374,28.1879444,Pretoria,South Africa,2655282,2565660,0.0349,89622,grew,11.56,14.05,12.3,4.92,20.03,337.12
184,-6.1258942,23.5998111,Mbuji-Mayi,DR Congo,2642794,2525263,0.0465,117531,grew,3.19,7.2,26.66,19.26,28.25,787.74
185,29.9992425,120.576854,Shaoxing,China,2633145,2540018,0.0367,93127,grew,42.44,102.82,142.33,121.25,0.01,1001.36
186,52.4796992,-1.9026911,Birmingham,United Kingdom,2626374,2607437,0.0073,18937,grew,6.14,29.13,9.34,8.43,34.33,333.79
187,37.461928,121.4425255,Yantai,China,2609465,2526702,0.0328,82763,grew,38.15,34.62,40.77,25.91,43.99,440.6
188,-6.9344694,107.6049539,Bandung,Indonesia,2606850,2580191,0.0103,26659,grew,47.21,98.71,424.87,341.47,0,8438.11
189,49.2608724,-123.113952,Vancouver,Canada,2606351,2581079,0.0098,25272,grew,21.46,34.62,21.6,10.31,46.49,580.79
190,23.1146515,114.4107202,Huizhou,China,2605871,2524543,0.0322,81328,grew,16.45,48.67,117.3,112.14,15.2,807.76
191,-11.6642316,27.4826264,Lubumbashi,DR Congo,2584133,2478262,0.0427,105871,grew,2.56,5.48,44.24,35.04,0.5,1054.76
192,5.5571096,-0.2012376,Accra,Ghana,2556972,2514005,0.0171,42967,grew,4.65,3.68,14.68,7.42,50.78,347.14
193,41.3123363,69.2787079,Tashkent,Uzbekistan,2545159,2517381,0.011,27778,grew,3.49,54.15,15.17,12.43,0,520.71
194,19.292545,-99.6569007,Toluca de Lerdo,Mexico,2522407,2467241,0.0224,55166,grew,0.31,0.41,3.64,3.18,70.1,193.6
195,25.6093239,85.1235252,Patna,India,2481530,2436447,0.0185,45083,grew,11.21,19.02,112.75,84.7,60.8,814.44
196,-0.7264327,15.6419155,Brazzaville,Republic of the Congo,2469630,2388090,0.0341,81540,grew,0.01,0.09,0.71,0.5,1.5,343.8
197,34.6556873,112.4209629,Luoyang,China,2461883,2387094,0.0313,74789,grew,29.09,58.26,118.53,59.39,15.38,654.22
198,23.2584857,77.401989,Bhopal,India,2446882,2389547,0.024,57335,grew,28.13,9.17,108.03,73.51,87.98,407.22
199,18.465299,-66.116666,San Juan,Puerto Rico,2445462,2448417,-0.0012,2955,declined,0.24,0.12,9.97,2.1,72.24,203.61
200,33.5130695,36.3095814,Damascus,Syria,2439814,2392045,0.02,47769,grew,2.18,6.51,4.15,1.75,77.96,267.03
201,-27.4689682,153.0234991,Brisbane,Australia,2439467,2406182,0.0138,33285,grew,4.95,9.34,8.07,2.72,32.9,233.65
202,33.8959203,35.47843,Beirut,Lebanon,2434609,2424425,0.0042,10184,grew,3.31,2.01,1.31,0.98,107.29,263.69
203,33.8439408,9.400138,Tunis,Tunisia,2402680,2365201,0.0158,37479,grew,0.24,1.71,122.5,28.44,80.11,250.34
204,-6.1760311,106.6384468,Tangerang,Indonesia,2397447,2338547,0.0252,58900,grew,3.64,11.31,22.56,9.8,8.32,607.49
205,2.0349312,45.3419183,Mogadishu,Somalia,2387920,2282009,0.0464,105911,grew,0.36,0.56,11.13,3.86,75.1,343.8
206,40.1639991,50.2777093,Baku,Azerbaijan,2370776,2341443,0.0125,29333,grew,1.06,3.13,14.15,7.08,92.98,253.68
207,3.5896654,98.6738261,Medan,Indonesia,2368348,2337958,0.013,30390,grew,6.44,47.3,165.7,143.93,0,4806.52
208,31.7043556,35.2061876,Belem,Brazil,2360474,2334462,0.0111,26012,grew,5.78,18.17,5.04,3.2,77.25,233.65
209,31.9827896,120.8904588,Nantong,China,2351145,2275777,0.0331,75368,grew,20.27,16.97,25.76,18.51,70.1,393.87
210,38.2677554,140.8691498,Sendai,Japan,2334959,2327417,0.0032,7542,grew,1.45,9.51,5.44,4.73,77.25,290.39
211,29.7589382,-95.3676974,Houston,United States,2323660,2321960,0.0007,1700,grew,4.59,9.6,6.28,3.63,56.51,243.66
212,-3.1316333,-59.9825041,Manaus,Brazil,2302374,2260788,0.0184,41586,grew,3.58,2.21,0.65,0.5,15.56,201.94
213,10.9799669,-74.8013085,Barranquilla,Colombia,2299186,2272914,0.0116,26272,grew,1.74,0.98,12.73,4.06,80.82,223.64
214,10.6498095,-71.6443596,Maracaibo,Venezuela,2296118,2257999,0.0169,38119,grew,3.49,1.39,5.28,1.72,91.55,233.65
215,32.1525312,74.1933745,Gujranwala,Pakistan,2290461,2229220,0.0275,61241,grew,2.86,24.33,250.06,208.13,39.34,1708.98
216,33.5914237,73.0535122,Rawalpindi,Pakistan,2280733,2236905,0.0196,43828,grew,20.03,119.27,194.02,150.28,0,4432.68
217,34.0123846,71.5787458,Peshawar,Pakistan,2272812,2202946,0.0317,69866,grew,4.47,38.39,47.34,26.02,57.94,1241.68
218,24.9929995,121.3010003,Taoyuan,Taiwan,2271507,2245162,0.0117,26345,grew,32.9,109.67,87.98,86.57,0,1455.31
219,27.1752554,78.0098161,Agra,India,2261561,2210246,0.0232,51315,grew,7.15,14.05,70.03,52.06,82.25,580.79
220,40.8337963,111.6730788,Hohhot,China,2239344,2163394,0.0351,75950,grew,24.32,49.35,87.21,42.39,21.46,567.44
221,40.6549157,109.8344586,Baotou,China,2238823,2190495,0.0221,48328,grew,6.02,14.57,110.52,31.35,57.22,330.45
222,22.2973142,73.1942567,Vadodara,India,2232521,2189973,0.0194,42548,grew,21.46,59.63,205.02,149.91,6.62,1562.12
223,11.8762254,75.3738043,Kannur,India,2226693,2166906,0.0276,59787,grew,6.38,28.79,133.01,110.97,54.36,988.01
224,24.3284746,109.4239676,Liuzhou,China,2226508,2165257,0.0283,61251,grew,12.4,29.47,105.23,102.78,17.88,741.01
225,17.7231276,83.3012842,Visakhapatnam,India,2225906,2174968,0.0234,50938,grew,39.58,33.59,80.64,65.17,29.33,587.46
226,34.2066591,117.278286,Xuzhou,China,2193219,2145970,0.022,47249,grew,100.14,81.57,223.49,164.12,0,1842.5
227,35.8713,128.6018,Daegu,South Korea,2190571,2198962,-0.0038,8391,declined,15.26,13.71,9.09,7.13,62.23,317.1
228,40.8359336,14.2487826,Naples,Italy,2182885,2186853,-0.0018,3968,declined,11.8,112.41,78.15,72.95,0,2590.18
229,31.9515694,35.9239625,Amman,Jordan,2182151,2148293,0.0158,33858,grew,4.59,12.51,6.38,3.26,85.12,267.03
230,32.5010188,-116.964662,Tijuana,Mexico,2181104,2140398,0.019,40706,grew,4.53,15.42,6.08,3.2,82.97,393.87
231,32.6707877,51.6650002,Esfahan,Iran,2176927,2132037,0.0211,44890,grew,26.7,63.75,34.39,14.2,28.25,514.03
232,11.568271,104.9224426,Phnom Penh,Cambodia,2143591,2077757,0.0317,65834,grew,3.46,17.65,103.68,78.69,42.2,1522.06
233,23.135305,-82.3589631,Havana,Cuba,2142866,2140423,0.0011,2443,grew,31.95,7.54,10.79,7.46,83.69,287.06
234,20.0112475,73.7902364,Nashik,India,2123018,2065728,0.0277,57290,grew,16.69,6.68,73.7,53.87,108.72,363.83
235,-3.1559361,-59.2794889,Grande Vitoria,Brazil,2109869,2075857,0.0164,34012,grew,0.01,0.14,0.51,0.5,10.64,185.25
236,16.5087586,80.6185102,Vijayawada,India,2104113,2039845,0.0315,64268,grew,7.33,10.97,68.47,56.22,50.78,494
237,50.8465573,4.351697,Brussels,Belgium,2095688,2080788,0.0072,14900,grew,4.29,45.24,11.8,9.92,0,507.36
238,21.420847,39.826869,Mecca,Saudi Arabia,2078766,2042106,0.018,36660,grew,51.98,19.36,36.64,11.9,84.4,230.31
239,34.3916058,132.4518156,Hiroshima,Japan,2077569,2083223,-0.0027,5654,declined,2.53,9.08,4.94,2.77,75.82,307.08
240,-31.9527121,115.8604796,Perth,Australia,2067333,2041959,0.0124,25374,grew,3.64,9,40.16,32.06,36.84,357.15
241,30.1979793,71.4724978,Multan,Pakistan,2059534,2015091,0.0221,44443,grew,5.36,54.84,289.09,222,0.75,2323.15
242,32.3969935,119.4077008,Yangzhou,China,2039472,1992773,0.0234,46699,grew,21.94,98.71,174.72,149.15,0,1335.14
243,53.9024716,27.5618225,Minsk,Belarus,2038822,2028104,0.0053,10718,grew,50.55,91.85,52.39,44.39,0.02,881.2
244,40.1827657,29.0677305,Bursa,Turkey,2021116,1986268,0.0175,34848,grew,14.9,42.5,24.09,21.72,40.77,403.88
245,38.8579735,115.490696,Baoding,China,2019960,1975790,0.0224,44170,grew,26.46,43.87,69.93,38.73,26.46,654.22
246,36.19924,37.1637253,Aleppo,Syria,2003671,1916781,0.0453,86890,grew,8.58,7.2,12.48,8.68,65.8,290.39
247,25.4557366,119.0029034,Putian,China,2002884,1907350,0.0501,95534,grew,18.36,52.09,84.94,81.4,8.94,700.95
248,28.6581723,121.4163876,Taizhou Zhejiang,China,1992626,1934847,0.0299,57779,grew,74.39,108.3,146.23,134.72,0,1415.25
249,9.5170602,-13.6998434,Conakry,Guinea,1991134,1938272,0.0273,52862,grew,0.42,0.32,285.69,87.87,79.39,243.66
250,37.1767104,116.8507744,Linyi Shandong,China,1984133,1936908,0.0244,47225,grew,30.52,37.36,65.17,40.03,35.76,634.19
251,31.3536127,118.4277477,Wuhu Anhui,China,1960681,1870281,0.0483,90400,grew,127.79,115.16,143.66,124.13,0,1668.93
252,48.2083537,16.3725042,Vienna,Austria,1944910,1929944,0.0078,14966,grew,8.11,16.62,20.88,18.41,65.09,390.53
253,8.8879509,76.5955013,Kollam,India,1940571,1851558,0.0481,89013,grew,1.24,0.73,48.41,39,121.59,347.14
254,39.4697065,-0.3763353,Valencia,Venezuela,1934891,1910188,0.0129,24703,grew,1.94,54.15,12.42,10.7,11.18,423.91
255,22.3053263,70.8028377,Rajkot,India,1933522,1878032,0.0295,55490,grew,4.11,7.03,130.74,73.51,78.68,487.33
256,20.0462328,110.1956502,Haikou,China,1931705,1889071,0.0226,42634,grew,8.35,123.38,154.45,144.67,0,961.3
257,43.2363924,76.9457275,Almaty,Kazakhstan,1927623,1895742,0.0168,31881,grew,156.4,93.22,107.91,103.48,0,1068.12
258,-24.0443878,-46.7040929,Baixada Santista,Brazil,1911338,1892314,0.0101,19024,grew,6.97,3.21,76.51,46.89,191.69,480.65
259,33.3495657,120.1576778,Yancheng Jiangsu,China,1907903,1864424,0.0233,43479,grew,20.03,58.95,107.11,85.74,8.76,1001.36
260,46.5969028,125.1014811,Daqing,China,1907293,1859001,0.026,48292,grew,11.68,18.34,17.95,14.92,48.64,413.9
261,34.022405,-6.834543,Rabat,Morocco,1907071,1884802,0.0118,22269,grew,0.59,0.4,5.51,2.2,105.86,226.97
262,53.7414271,-1.7202004,West Yorkshire,United Kingdom,1901947,1889095,0.0068,12852,grew,2.33,9.08,6.73,6.02,67.23,297.07
263,-6.9903988,110.4229104,Semarang,Indonesia,1901570,1866492,0.0188,35078,grew,4.77,5.4,27.12,20.2,43.99,500.68
264,-0.2201641,-78.5123274,Quito,Ecuador,1900571,1873763,0.0143,26808,grew,24.56,51.41,36.26,34.38,34.33,1081.47
265,8.9714493,-79.5341802,Panama City,Panama,1899081,1860291,0.0209,38790,grew,6.38,4.16,5.8,3.7,77.25,267.03
266,17.360589,78.4740613,Hyderabad,Pakistan,1886734,1849829,0.02,36905,grew,42.44,101.45,221.7,188.17,0.04,3017.43
267,30.9090157,75.851601,Ludhiana,India,1885456,1856849,0.0154,28607,grew,3.7,32.9,131.49,102.71,8.58,1241.68
268,-16.4955455,-68.1336229,La Paz,Bolivia,1881796,1857797,0.0129,23999,grew,2.5,6.68,11.56,9.68,63.66,447.27
269,34.5978596,119.215813,Lianyungang,China,1877847,1820127,0.0317,57720,grew,36.72,64.43,110.76,83.34,0.29,1148.22
270,6.130419,1.215829,Lome,Togo,1874394,1827878,0.0254,46516,grew,0.97,3.21,13.65,5.25,20.39,500.68
271,7.0645451,125.6084371,Davao City,Philippines,1866401,1825450,0.0224,40951,grew,0.62,3.04,2.91,2.38,11.62,257.02
272,26.0962497,-99.2763436,Leon de los Aldamas,Mexico,1848932,1825080,0.0131,23852,grew,0.44,0.9,10.88,6.2,74.39,240.33
273,22.273734,113.5721327,Zhuhai,China,1803711,1759378,0.0252,44333,grew,52.45,76.77,146.35,124.67,0.57,1201.63
274,45.0677551,7.6824892,Turin,Italy,1795235,1792163,0.0017,3072,grew,3.82,58.95,58.68,51.98,0.05,1388.55
275,44.4361414,26.1027202,Bucharest,Romania,1794248,1803247,-0.005,8999,declined,3.82,36.67,43.21,28.65,30.4,614.17
276,36.9863599,35.3252861,Adana,Turkey,1792565,1770850,0.0123,21715,grew,4.65,9,8.04,6.98,85.12,350.48
277,52.2319581,21.0067249,Warsaw,Poland,1789620,1783251,0.0036,6369,grew,20.27,14.57,16.89,12.14,64.37,357.15
278,53.550341,10.000654,Hamburg,Germany,1788995,1789954,-0.0005,959,declined,10.13,21.76,21.5,19.35,48.64,357.15
279,40.0919817,113.2951122,Datong,China,1788913,1745333,0.025,43580,grew,33.85,29.13,72.49,27.67,43.99,534.06
280,6.3330586,5.6221058,Benin City,Nigeria,1781999,1727169,0.0317,54830,grew,3.93,15.77,48.08,27.89,31.47,921.25
281,47.4979937,19.0403594,Budapest,Hungary,1771865,1768073,0.0021,3792,grew,8.11,27.42,39.61,35.15,51.5,460.63
282,9.9261153,78.1140983,Madurai,India,1765534,1734173,0.0181,31361,grew,5.78,21.08,69.14,55.98,48.64,660.9
283,-34.9058916,-56.1913095,Montevideo,Uruguay,1759906,1752388,0.0043,7518,grew,5.07,2.57,53.52,9.66,34.33,243.66
284,24.8755492,118.6723605,Quanzhou,China,1755721,1694076,0.0364,61645,grew,12.04,44.55,72.88,71.52,18.24,707.63
285,-2.9888297,104.756857,Palembang,Indonesia,1753269,1722700,0.0177,30569,grew,0.38,1.93,21.11,10.69,19.85,300.41
286,-17.78629,-63.18117,Santa Cruz,Bolivia,1748540,1712688,0.0209,35852,grew,0.11,0.3,0.88,0.5,8.05,293.73
287,-25.966917,32.466956,Matola,Mozambique,1748247,1705886,0.0248,42361,grew,1.67,4.67,42.2,15.17,16.81,560.76
288,37.0628317,37.3792617,Gaziantep,Turkey,1739687,1704118,0.0209,35569,grew,4.41,15.08,19.43,14.9,80.82,353.81
289,25.3461498,55.4210633,Sharjah,United Arab Emirates,1736799,1684649,0.031,52150,grew,22.65,87.74,61.95,24.29,10.46,417.23
290,33.4484367,-112.0741417,Phoenix,United States,1733630,1707310,0.0154,26320,grew,3.82,16.11,50.2,14.82,89.41,363.83
291,45.7578137,4.8320114,Lyon,France,1733581,1719268,0.0083,14313,grew,9.06,64.43,38.77,34.65,3.53,921.25
292,29.0006525,77.7682288,Meerut,India,1728435,1696440,0.0189,31995,grew,9.18,15.42,70.45,53.53,62.23,600.82
293,22.5816619,113.0761073,Jiangmen,China,1713021,1687310,0.0152,25711,grew,64.85,80.88,137.6,124.08,0.18,1081.47
294,10.0451859,105.7448944,Can Tho,Vietnam,1703487,1617602,0.0531,85885,grew,2.59,11.65,51.49,43.72,32.9,894.55
295,21.2379469,81.6336833,Raipur,India,1702048,1642169,0.0365,59879,grew,4.29,10.11,50.19,40.39,59.37,527.38
296,25.3356491,83.0076292,Varanasi,India,1692509,1664942,0.0166,27567,grew,15.74,28.1,136.57,101.55,51.5,1014.71
297,32.010998,112.1163785,Xiangyang,China,1684991,1657726,0.0164,27265,grew,8.82,55.52,126.39,77.96,6.44,1174.93
298,36.343694,43.0997156,Mosul,Iraq,1683029,1629932,0.0326,53097,grew,37.19,131.61,22.96,14.99,0.01,1281.74
299,55.8609825,-4.2488787,Glasgow,United Kingdom,1680669,1673332,0.0044,7337,grew,3.99,8.05,6.07,3.99,82.25,257.02
300,55.0282171,82.9234509,Novosibirsk,Russia,1675866,1663748,0.0073,12118,grew,0.61,0.87,0.68,0.61,80.11,257.02
301,29.6060218,52.5378041,Shiraz,Iran,1675226,1651362,0.0145,23864,grew,9.3,65.12,11.04,6.98,0.01,767.71
302,25.54275967,-103.4068701,La Laguna,Mexico,1674258,1614854,0.0368,59404,grew,0.2,0.72,2.25,0.81,67.95,200.27
303,30.1708675,121.261786,Cixi,China,1672457,1609221,0.0393,63236,grew,194.55,120.64,138.84,115.35,0,2189.64
304,59.3251172,18.0710935,Stockholm,Sweden,1656571,1632798,0.0146,23773,grew,16.93,26.39,7.69,4.87,31.83,407.22
305,41.1075276,122.9902689,Anshan,China,1647001,1629166,0.0109,17835,grew,427.25,150.8,270.86,216.08,0,6248.47
306,-36.852095,174.7631803,Auckland,New Zealand,1630092,1606564,0.0146,23528,grew,1.94,11.65,6.04,4.36,2.21,233.65
307,22.8015194,86.2029579,Jamshedpur,India,1629621,1599434,0.0189,30187,grew,20.74,21.25,111.97,75.16,46.49,1068.12
308,38.0739964,46.2961952,Tabriz,Iran,1627304,1611133,0.01,16171,grew,44.35,178.22,44.95,41.34,0,1401.9
309,38.4852037,106.2261926,Yinchuan,China,1626584,1579049,0.0301,47535,grew,34.81,90.48,156.16,93.76,0.05,1148.22
310,42.9995032,125.9816054,Jilin,China,1623240,1603332,0.0124,19908,grew,12.64,18.51,25.77,19.29,50.78,420.57
311,34.0747444,74.8204443,Srinagar,India,1622454,1585774,0.0231,36680,grew,4.71,14.57,49.72,33.84,101.57,634.19
312,1.1061034,104.0378246,Batam,Indonesia,1617168,1546064,0.046,71104,grew,3.34,5.83,19.76,12.34,65.8,307.08
313,47.9490993,107.0222591,Ulaanbaatar,Mongolia,1615094,1584358,0.0194,30736,grew,40.53,19.88,21.84,19.28,59.37,407.22
314,43.2961743,5.3699525,Marseille,France,1613797,1608236,0.0035,5561,grew,3.67,19.02,7.98,6.72,56.51,407.22
315,-5.1342962,119.4124282,Makassar,Indonesia,1612249,1583553,0.0181,28696,grew,1.27,1.89,2.43,2.01,41.84,343.8
316,30.694088,111.2803074,Yichang,China,1605526,1548423,0.0369,57103,grew,45.3,81.57,105.24,71.3,0.73,1054.76
317,19.877263,75.3390241,Aurangabad,India,1599927,1558412,0.0266,41515,grew,5.13,2.91,67.07,42.49,98.71,323.77
318,23.5882019,58.3829448,Muscat,Oman,1589865,1549729,0.0259,40136,grew,42.92,127.49,60.86,36.16,0.79,600.82
319,39.9395724,119.5894129,Qinhuangdao,China,1585961,1535223,0.033,50738,grew,15.26,30.5,50.37,25.81,36.12,507.36
320,39.9527237,-75.1635262,Philadelphia,United States,1585010,1584540,0.0003,470,grew,14.31,71.97,39.74,34.3,31.11,580.79
321,-31.4173391,-64.183319,Cordoba,Argentina,1584599,1571944,0.0081,12655,grew,0.95,1.8,3.33,2.84,69.38,377.18
322,47.3523672,123.9164653,Qiqihaer,China,1583663,1559581,0.0154,24082,grew,7.21,15.94,21.16,15.67,50.78,433.92
323,36.617331,101.7761976,Xining,China,1583164,1539437,0.0284,43727,grew,25.75,47.3,75.78,50.57,30.4,620.84
324,35.8224892,50.9904681,Karaj,Iran,1582351,1580413,0.0012,1938,grew,9.54,32.22,20.36,15.12,82.25,350.48
325,29.4246002,-98.4951405,San Antonio,United States,1581730,1564490,0.011,17240,grew,0.49,1.17,7.24,3.36,77.25,240.33
326,51.0460954,-114.065465,Calgary,Canada,1580659,1547484,0.0214,33175,grew,2.18,6.94,3.44,1.42,72.24,327.11
327,27.0782342,112.3356329,Hengyang,China,1573731,1527107,0.0305,46624,grew,39.58,86.37,121.63,104.16,3.98,847.82
328,36.3496,127.3848,Daejon,South Korea,1569459,1565656,0.0024,3803,grew,18.12,13.02,10.94,8.18,60.8,310.42
329,6.328034,-10.797788,Monrovia,Liberia,1569013,1517235,0.0341,51778,grew,0.75,1.41,6.6,3.34,36.12,393.87
330,11.1017815,77.345192,Tiruppur,India,1558993,1496389,0.0418,62604,grew,7.21,27.08,124.38,103.64,76.53,761.03
331,-32.9595004,-60.6615415,Rosario,Argentina,1553530,1532128,0.014,21402,grew,3.22,2.53,3.71,3.2,67.23,300.41
332,48.1371079,11.5753822,Munich,Germany,1553373,1538302,0.0098,15071,grew,7.15,50.04,14.17,12.43,0.14,594.14
333,22.6203348,120.3120375,Gaoxiong,Taiwan,1541861,1537640,0.0027,4221,grew,21.7,101.45,41.97,40.67,0.01,894.55
334,-17.831773,31.045686,Harare,Zimbabwe,1541824,1529920,0.0078,11904,grew,15.97,12.68,68.31,58.91,0.23,947.95
335,31.7097961,-106.455581,Ciudad Juarez,Mexico,1539758,1519214,0.0135,20544,grew,0.43,0.73,21.85,4.98,104.43,220.3
336,36.1023552,114.33633,Anyang,China,1524622,1460114,0.0442,64508,grew,34.33,38.04,146.66,81.93,29.68,961.3
337,-5.8951725,22.408589,Kananga,DR Congo,1524234,1458400,0.0451,65834,grew,1.51,3.73,24.08,18.77,11,741.01
338,35.1595775,126.8515089,Gwangju,South Korea,1523822,1521506,0.0015,2316,grew,2.5,4.2,3.87,1.85,80.11,247
339,33.9646533,118.2697192,Suqian,China,1520240,1440060,0.0557,80180,grew,43.39,76.77,131.78,94.12,0.45,1188.28
340,35.4125047,116.5849266,Jining Shandong,China,1518329,1494249,0.0161,24080,grew,46.73,80.2,184.66,136.34,2.21,1508.71
341,24.471153,39.6111216,Medina,Saudi Arabia,1517501,1488782,0.0193,28719,grew,4.89,2.04,29.62,8.55,111.58,210.29
342,56.839104,60.60825,Yekaterinburg,Russia,1513142,1503812,0.0062,9330,grew,2.03,1.99,0.71,0.61,67.95,263.69
343,24.4538352,54.3774014,Abu Dhabi,United Arab Emirates,1511768,1482816,0.0195,28952,grew,3.79,25.36,125,41.25,59.37,420.57
344,26.2967719,73.0351433,Jodhpur,India,1509826,1471900,0.0258,37926,grew,3.16,13.88,111.27,65.68,75.1,507.36
345,-28.500238,-53.586696,Grande Sao Luis,Brazil,1498475,1485763,0.0086,12712,grew,0.15,0.57,2.96,2.83,57.94,260.35
346,53.535411,-113.507996,Edmonton,Canada,1491076,1461182,0.0205,29894,grew,10.25,29.47,10.44,9.42,24.32,894.55
347,-5.805398,-35.2080905,Natal,Brazil,1485363,1456844,0.0196,28519,grew,1.79,3.81,4.96,1.52,31.11,297.07
348,14.1056861,-87.204676,Tegucigalpa,Honduras,1485300,1444085,0.0285,41215,grew,1.76,0.7,1.98,0.79,78.68,216.96
349,6.1461619,6.8019088,Onitsha,Nigeria,1482971,1414790,0.0482,68181,grew,12.88,16.62,229.88,120.83,82.25,1976.01
350,11.72559,15.24422,N-Djamena,Chad,1476115,1422547,0.0377,53568,grew,0.26,0.61,617.94,142.99,69.38,240.33
351,23.3700354,85.3250132,Ranchi,India,1474748,1439195,0.0247,35553,grew,7.63,11.65,82.04,63.35,91.55,554.09
352,27.708317,85.3205817,Kathmandu,Nepal,1471867,1423515,0.034,48352,grew,10.85,32.22,249.74,156.78,50.78,1762.39
353,23.1608938,79.9497702,Jabalpur,India,1471644,1449787,0.0151,21857,grew,7.21,12.85,87.37,65.49,39.34,620.84
354,21.9812746,96.082375,Mandalay,Myanmar,1469193,1437554,0.022,31639,grew,10.85,34.27,111.53,92.04,33.26,1869.2
355,40.8228016,114.880567,Zhangjiakou,China,1468954,1434649,0.0239,34305,grew,19.55,26.39,45.65,16.6,43.63,293.73
356,32.5866826,117.0130019,Huainan,China,1461918,1437838,0.0167,24080,grew,39.58,82.94,171.86,137.75,0.14,1268.39
357,23.6871297,86.9746587,Asansol,India,1453747,1431260,0.0157,22487,grew,13.71,29.13,114.35,78.35,64.37,894.55
358,23.6566146,116.6205482,Chaozhou,China,1449830,1428383,0.015,21447,grew,2,4.2,37.51,34.88,36.12,447.27
359,25.1968256,76.0008933,Kota,India,1430870,1386877,0.0317,43993,grew,3.01,21.59,153.07,114.23,28.61,834.47
360,32.7174202,-117.1627728,San Diego,United States,1427720,1425780,0.0014,1940,grew,2.06,11.31,4.03,1.92,89.41,280.38
361,49.9923181,36.2310146,Kharkiv,Ukraine,1425987,1429004,-0.0021,3017,declined,8.7,28.79,7.68,5.74,62.23,320.44
362,37.3361905,-121.890583,San Jose,Costa Rica,1420533,1399629,0.0149,20904,grew,6.5,52.78,20.08,14.49,22.17,514.03
363,12.9546871,100.7746521,Chon Buri,Thailand,1417247,1398645,0.0133,18602,grew,0.72,0.4,177.23,152.19,188.83,761.03
364,25.4381302,81.8338005,Allahabad,India,1415463,1393723,0.0156,21740,grew,13.23,13.02,133.18,102.89,70.1,734.33
365,26.2037247,78.1573628,Gwalior,India,1409820,1378375,0.0228,31445,grew,2.35,10.11,59.26,44.07,65.09,507.36
366,45.4211435,-75.6900574,Ottawa,Canada,1407928,1393086,0.0107,14842,grew,0.95,1.52,1.34,1.05,76.53,270.37
367,47.3744489,8.5410422,Zurich,Switzerland,1407572,1395356,0.0088,12216,grew,18.6,56.89,35.9,29.85,0,761.03
368,44.8178131,20.4568974,Belgrade,Serbia,1401786,1397939,0.0028,3847,grew,6.08,5.83,11.32,9.21,91.55,287.06
369,31.6343083,74.8736788,Amritsar,India,1400311,1377371,0.0167,22940,grew,2.62,25.02,192.92,133.64,18.95,1401.9
370,-7.1215981,-34.882028,Joao Pessoa,Brazil,1393345,1378249,0.011,15096,grew,1.13,2.19,3.81,1.27,32.19,270.37
371,29.3063535,120.0702682,Yiwu,China,1386791,1334356,0.0393,52435,grew,41.49,113.79,133.27,119.71,0,1148.22
372,30.4952371,47.8090981,Basra,Iraq,1381731,1352210,0.0218,29521,grew,13.23,21.08,35.9,21.56,65.8,383.85
373,32.4585613,119.9181228,Taizhou Jiangsu,China,1381569,1348056,0.0249,33513,grew,20.74,81.57,137.04,115.36,0.03,1214.98
374,18.0629628,-15.9629106,Nouakchott,Mauritania,1372244,1314636,0.0438,57608,grew,0.79,1.67,317.6,112.65,46.49,303.75
375,20.5927744,-100.3902245,Queretaro,Mexico,1364446,1339103,0.0189,25343,grew,5.9,1.32,13.1,12.24,95.84,250.34
376,36.2002968,117.0809316,Taian Shandong,China,1364154,1338828,0.0189,25326,grew,70.57,82.94,111.99,79.75,13.41,961.3
377,34.7333334,36.7166667,Homs,Syria,1362480,1335804,0.02,26676,grew,7.99,9.77,9.94,9,67.95,297.07
378,55.6867243,12.5700724,Copenhagen,Denmark,1358608,1346485,0.009,12123,grew,2.92,8.4,8.19,6.82,75.82,297.07
379,37.8768277,32.4874202,Konya,Turkey,1356280,1328136,0.0212,28144,grew,2.74,3.26,8.18,7.79,88.69,263.69
380,7.1114611,-73.1172869,Bucaramanga,Colombia,1348882,1331453,0.0131,17429,grew,0.25,1.14,2.21,1.55,40.05,240.33
381,23.7952809,86.4309638,Dhanbad,India,1348238,1331186,0.0128,17052,grew,12.28,31.87,129.54,88.66,50.78,1028.06
382,37.5120997,122.1152599,Weihai,China,1347865,1304315,0.0334,43550,grew,26.7,25.36,40.09,24.37,50.07,403.88
383,32.7762719,-96.7968559,Dallas,United States,1347120,1345340,0.0013,1780,grew,4.71,27.76,12.68,9.77,30.4,433.92
384,25.8332103,114.9287362,Ganzhou,China,1347065,1285039,0.0483,62026,grew,20.5,104.19,153.26,149.18,0,1415.25
385,-34.9281805,138.5999312,Adelaide,Australia,1345445,1336403,0.0068,9042,grew,0.18,0.36,6.55,5.58,33.62,343.8
386,20.858864,106.6749591,Hai Phong,Vietnam,1341015,1300088,0.0315,40927,grew,6.2,16.45,55.71,45.09,10.46,801.09
387,-4.05052,39.667169,Mombasa,Kenya,1340913,1295975,0.0347,44938,grew,2.35,2.7,9.07,3.75,19.85,343.8
388,24.163162,120.6478282,Taizhong,Taiwan,1338086,1320591,0.0132,17495,grew,15.02,70.6,49.78,49.01,6.8,894.55
389,-9.6476843,-35.7339264,Maceio,Brazil,1336999,1323039,0.0106,13960,grew,1.62,2.42,7.96,2.06,38.98,290.39
390,-17.4012458,-66.1675737,Cochabamba,Bolivia,1336752,1303907,0.0252,32845,grew,1.43,1.67,4.01,3.1,75.1,343.8
391,13.524834,2.109823,Niamey,Niger,1335700,1291848,0.0339,43852,grew,1.62,2.83,147.75,50.98,71.53,447.27
392,37.266667,127.016667,Suwon,South Korea,1331826,1311321,0.0156,20505,grew,47.68,52.78,21.92,16.71,26.82,487.33
393,13.6531651,100.8182578,Samut Prakan,Thailand,1324319,1306937,0.0133,17382,grew,40.53,172.73,655.58,504.19,0.14,7370
394,48.4433253,5.1377537,Joinville,Brazil,1319042,1303141,0.0122,15901,grew,0.57,6.86,14.29,13.66,65.09,323.77
395,30.7474425,120.7510971,Jiaxing,China,1318418,1259844,0.0465,58574,grew,16.93,42.16,63.75,50.99,35.41,594.14
396,34.7961106,114.3472038,Kaifeng,China,1317530,1274287,0.0339,43243,grew,41.96,84.31,167.89,95.24,0.04,1094.82
397,60.1674881,24.9427473,Helsinki,Finland,1316757,1304851,0.0091,11906,grew,4.47,10.88,10.37,7,55.79,350.48
398,41.1494512,-8.6107884,Porto,Portugal,1316445,1312947,0.0027,3498,grew,1.97,3,4.97,1.71,95.84,260.35
399,21.2737079,110.3548318,Zhanjiang,China,1315369,1286854,0.0222,28515,grew,16.93,49.35,139.17,115.6,0.46,1108.17
400,27.7237996,106.9191408,Zunyi,China,1313433,1280960,0.0254,32473,grew,5.31,9.68,58.28,56.42,50.07,547.41
401,35.4150703,119.5214512,Rizhao,China,1312824,1270948,0.0329,41876,grew,39.58,39.41,78.19,54.96,24.68,787.74
402,0.5184021,25.2057292,Kisangani,DR Congo,1312353,1261310,0.0405,51043,grew,1.19,2.19,16.04,11.36,9.92,554.09
403,50.0874654,14.4212535,Prague,Czech Republic,1312199,1305737,0.0049,6462,grew,8.46,31.87,27.32,24.96,41.49,433.92
404,37.4334738,118.6689349,Dongying,China,1311494,1276028,0.0278,35466,grew,31.95,42.5,65.67,46.4,30.76,687.6
405,34.6423117,50.8800969,Qom,Iran,1311172,1287937,0.018,23235,grew,4.65,95.96,77.38,41.74,4.74,754.36
406,31.4627341,104.7463432,Mianyang Sichuan,China,1300725,1275851,0.0195,24874,grew,13.95,85,123.74,87.03,0.38,1188.28
407,30.792362,106.0826662,Nanchong,China,1299462,1257726,0.0332,41736,grew,30.28,49.35,103.63,85.25,15.38,1161.58
408,41.8692972,123.924157,Fushun Liaoning,China,1288357,1285387,0.0023,2970,grew,69.62,106.93,207.15,159.7,0,2429.96
409,36.9009641,30.6954846,Antalya,Turkey,1287439,1253872,0.0268,33567,grew,1.94,2.83,5.56,4.89,100.14,257.02
410,28.457876,79.4055709,Bareilly,India,1285964,1255287,0.0244,30677,grew,17.41,12.85,83.18,65.45,86.55,594.14
411,42.6978634,23.3221789,Sofia,Bulgaria,1284311,1280968,0.0026,3343,grew,3.46,16.79,32.28,25.02,82.97,453.95
412,32.6314877,110.792752,Shiyan,China,1280495,1241450,0.0315,39045,grew,7.87,17.14,58.06,37.57,39.7,634.19
413,55.7823547,49.1242266,Kazan,Russia,1279794,1272063,0.0061,7731,grew,4.65,8.23,4.25,3.94,58.65,290.39
414,26.4367824,50.1039991,Ad-Dammam,Saudi Arabia,1279092,1252523,0.0212,26569,grew,7.09,8.14,30.87,18.42,98.71,263.69
415,-33.9617051,25.6207519,Port Elizabeth,South Africa,1266533,1253742,0.0102,12791,grew,12.64,13.2,28.33,18.2,82.25,433.92
416,31.3229936,48.6793316,Ahvaz,Iran,1261042,1244250,0.0135,16792,grew,5.07,10.8,22.47,17.44,88.69,370.5
417,33.3705714,113.2720234,Liuan,China,1260817,1195907,0.0543,64910,grew,15.02,27.76,122.08,52.22,34.33,600.82
418,-27.5973002,-48.5496098,Florianopolis,Brazil,1259112,1239331,0.016,19781,grew,0.89,4.03,51.07,42.29,107.29,387.19
419,56.3264816,44.0051395,Nizhniy Novgorod,Russia,1255073,1257754,-0.0021,2681,declined,8.23,17.31,6.72,5.83,50.07,303.75
420,-4.7975373,11.8503297,Pointe-Noire,Republic of the Congo,1253939,1214281,0.0327,39658,grew,0.57,3.21,8.52,3.86,22.35,467.3
421,40.6747155,122.2357736,Yingkou,China,1251867,1214047,0.0312,37820,grew,13.59,23.65,39.29,26.54,39.7,507.36
422,34.0346534,-5.0161926,Fes,Morocco,1245303,1224080,0.0173,21223,grew,0.89,3.9,7.81,6.42,55.08,216.96
423,27.8769897,78.1372903,Aligarh,India,1244591,1210554,0.0281,34037,grew,34.33,28.1,88.05,66.24,66.52,787.74
424,28.166416,113.6375778,Liuyang,China,1242055,1169044,0.0625,73011,grew,33.38,115.16,194.29,179.44,0,1214.98
425,53.3497645,-6.2602732,Dublin,Ireland,1241953,1228179,0.0112,13774,grew,7.57,24.68,9.28,8.45,22.17,397.21
426,21.6656961,110.9209511,Maoming,China,1238809,1204716,0.0283,34093,grew,20.74,33.24,114.05,97.36,10.28,1161.58
427,35.777103,-5.803792,Tanger,Morocco,1238322,1197923,0.0337,40399,grew,1.62,2.38,6.21,3.14,98.71,247
428,5.6394753,100.4815031,Pekan Baru,Indonesia,1238274,1204883,0.0277,33391,grew,7.09,28.79,30.04,27.74,23.25,921.25
429,35.113997,117.1599113,Tengzhou,China,1236764,1189963,0.0393,46801,grew,68.67,82.25,237.53,162.67,0,1842.5
430,8.479004,-13.26795,Freetown,Sierra Leone,1236425,1201900,0.0287,34525,grew,0.37,0.23,287.66,91.11,71.53,243.66
431,22.5000001,-100.4949145,San Luis Potosi,Mexico,1235426,1216564,0.0155,18862,grew,0.21,0.3,5.62,4.34,74.39,210.29
432,12.3051828,76.6553609,Mysore,India,1234992,1209836,0.0208,25156,grew,5.19,20.56,63.58,51.98,70.81,614.17
433,55.1598408,61.4025547,Chelyabinsk,Russia,1232887,1227795,0.0041,5092,grew,2.83,7.03,1.41,1.2,69.38,270.37
434,28.8638424,78.8057783,Moradabad,India,1232190,1197000,0.0294,35190,grew,7.87,14.4,73.07,56.39,68.67,640.87
435,10.0740372,-69.3215667,Barquisimeto,Venezuela,1227444,1214362,0.0108,13082,grew,3.19,1.56,2.82,2.24,97.28,223.64
436,21.19,81.28,Durg-Bhilai,India,1225129,1207637,0.0145,17492,grew,58.65,37.36,69.33,57.96,39.7,707.63
437,31.3016935,120.5810725,Suzhou,China,1219579,1169932,0.0424,49647,grew,25.75,51.41,53.4,42.66,33.62,547.41
438,10.2375144,-67.5890216,Maracay,Venezuela,1216288,1203227,0.0109,13061,grew,29.56,10.88,6.42,4.54,89.41,340.46
439,51.1282205,71.4306682,Astana,Kazakhstan,1211789,1165983,0.0393,45806,grew,4.71,2.44,2.06,1.79,94.41,243.66
440,27.4989086,113.1529127,Zhuzhou,China,1209032,1186912,0.0186,22120,grew,73.43,124.75,197.33,178.48,0,1281.74
441,27.7809047,120.6512652,Ruian,China,1208306,1168983,0.0336,39323,grew,27.42,80.88,114.97,110.41,0.06,961.3
442,5.0322447,7.924791,Uyo,Nigeria,1199929,1135775,0.0565,64154,grew,6.74,15.08,168,93.64,34.69,1762.39
443,32.1901111,119.4200584,Zhenjiang Jiangsu,China,1199515,1173816,0.0219,25699,grew,34.33,102.82,207.88,178.62,0,1628.88
444,34.3645811,107.2332184,Baoji,China,1197824,1164665,0.0285,33159,grew,109.67,113.79,180.85,136.6,0,1708.98
445,23.5528679,116.3680847,Jieyang,China,1194681,1146758,0.0418,47923,grew,6.74,13.2,65.89,60.44,35.76,580.79
446,42.2799929,118.9426131,Chifeng,China,1194621,1164793,0.0256,29828,grew,2.92,3.73,104.37,21.91,82.25,247
447,20.2667774,85.8435592,Bhubaneswar,India,1194431,1162886,0.0271,31545,grew,3.67,5.57,65.88,55.17,94.41,380.52
448,33.7374744,113.2981436,Pingdingshan Henan,China,1193224,1159981,0.0287,33243,grew,32.42,33.93,124.24,51.83,41.13,574.11
449,23.3000046,116.1611114,Puning,China,1192348,1160045,0.0278,32303,grew,5.78,12,65.88,59.17,23.6,674.25
450,-34.787093,-68.4381868,Mendoza,Argentina,1191470,1172619,0.0161,18851,grew,0.11,0.17,25.39,7.72,57.94,226.97
451,-6.5962986,106.7972421,Bogor,Indonesia,1183090,1159719,0.0202,23371,grew,2.74,12.68,161.38,58.83,0.01,1548.77
452,18.7882778,98.9858802,Chiang Mai,Thailand,1182498,1166978,0.0133,15520,grew,1.94,2.38,33.84,25.51,37.91,350.48
453,-2.5196915,32.9014417,Mwanza,Tanzania,1182011,1120430,0.055,61581,grew,0.2,0.77,6.08,2.25,49.35,273.71
454,10.804973,78.6870296,Tiruchirappalli,India,1181912,1164668,0.0148,17244,grew,2.03,16.97,52.79,39.83,30.4,554.09
455,54.991375,73.371529,Omsk,Russia,1181590,1182339,-0.0006,749,declined,5.42,8.65,6.35,6.12,63.66,273.71
456,38.9174665,-6.3443977,Merida,Mexico,1181387,1161475,0.0171,19912,grew,0.16,4.84,2.28,1.73,42.2,253.68
457,41.297577,123.7646562,Benxi,China,1176490,1157413,0.0165,19077,grew,305.18,128.87,187.38,140.35,0,3364.56
458,33.9566098,116.7928916,Huaibei,China,1174248,1141734,0.0285,32514,grew,43.39,83.63,228.46,175.49,0.26,1735.69
459,-13.9875107,33.768144,Lilongwe,Malawi,1170870,1121720,0.0438,49150,grew,0.59,2.49,14.69,6.66,5.5,407.22
460,33.0010496,112.5292693,Nanyang Henan,China,1170491,1142799,0.0242,27692,grew,42.44,82.25,171.79,94.49,2.15,1188.28
461,29.1080344,119.6486487,Jinhua,China,1170332,1122440,0.0427,47892,grew,30.28,71.97,142.6,132.01,0,1081.47
462,27.8328352,112.9388078,Xiangtan Hunan,China,1170327,1142976,0.0239,27351,grew,71.53,122.01,180.53,156.11,0,1174.93
463,-1.950851,30.061507,Kigali,Rwanda,1169889,1132101,0.0334,37788,grew,1,6.34,29.62,15.13,14.31,614.17
464,32.896672,13.1777923,Tripoli,Libya,1169790,1165085,0.004,4705,grew,1.8,6.86,34.99,13.67,124.45,387.19
465,30.7334421,76.7797143,Chandigarh,India,1169244,1148472,0.0181,20772,grew,4.29,18.34,62.45,46.19,60.8,654.22
466,41.108528,121.1194219,Jinzhou,China,1168535,1145359,0.0202,23176,grew,8.23,7.2,27.38,11.84,72.96,340.46
467,33.6938118,73.0651511,Islamabad,Pakistan,1163584,1129198,0.0305,34386,grew,4.17,55.52,83.23,52.25,27.9,1455.31
468,53.198627,50.113987,Samara,Russia,1160167,1163296,-0.0027,3129,declined,2.35,4.46,2.35,1.88,69.38,287.06
469,52.3727598,4.8936041,Amsterdam,Netherlands,1157519,1148972,0.0074,8547,grew,2.18,50.04,18.75,17.79,0,480.65
470,16.068,108.212,Da Nang,Vietnam,1156585,1125316,0.0278,31269,grew,0.41,0.99,27.01,21.75,84.4,323.77
471,32.8191218,34.9983856,Haifa,Israel,1155006,1147431,0.0066,7575,grew,0.53,0.21,3.34,1.39,110.15,226.97
472,25.2383172,110.1752245,Guilin,China,1154702,1134393,0.0179,20309,grew,7.21,20.91,100.42,96.42,27.9,640.87
473,63.3233807,97.0979974,Krasnoyarsk,Russia,1148957,1137494,0.0101,11463,grew,0,0.03,0.5,0.5,50.78,260.35
474,32.6248622,-115.448325,Mexicali,Mexico,1140298,1120872,0.0173,19426,grew,0.21,1.69,5,1.22,103,253.68
475,54.7261409,55.947499,Ufa,Russia,1139561,1136291,0.0029,3270,grew,0.78,3.04,1.44,1.28,70.81,283.72
476,47.2213858,39.7114196,Rostov-on-Don,Russia,1137147,1136201,0.0008,946,grew,2.56,3.9,5.01,4.34,75.82,280.38
477,15.3518378,75.1379848,Hubli-Dharwad,India,1136923,1116728,0.0181,20195,grew,6.26,48.67,86.27,72.19,29.33,988.01
478,26.1805978,91.753943,Guwahati,India,1135065,1116740,0.0164,18325,grew,5.6,33.24,164.03,139.35,26.82,1455.31
479,10.3825318,7.8533226,Kaduna,Nigeria,1133430,1113210,0.0182,20220,grew,0.54,1.07,338.96,91.07,81.54,310.42
480,-2.5103908,28.8336436,Bukavu,DR Congo,1133371,1078002,0.0514,55369,grew,1.03,4.58,16.91,11.02,19.85,567.44
481,26.5963778,104.8279652,Liupanshui,China,1131854,1077317,0.0506,54537,grew,13.23,16.62,42.75,37.61,42.56,460.63
482,30.1957677,67.0172447,Quetta,Pakistan,1129361,1099546,0.0271,29815,grew,5.84,30.85,101.51,58.34,41.84,1161.58
483,50.938361,6.959974,Cologne,Germany,1128652,1118789,0.0088,9863,grew,23.84,76.08,42.37,32.82,0,847.82
484,22.0000001,-102.5000001,Aguascalientes,Mexico,1124909,1106453,0.0167,18456,grew,0.18,0.13,6.35,5.86,67.95,203.61
485,37.3821206,117.9647262,Binzhou,China,1124728,1083867,0.0377,40861,grew,31.47,62.38,83.85,58.59,24.68,847.82
486,44.9391565,-123.033121,Salem,India,1123873,1102463,0.0194,21410,grew,2.24,8.48,6.37,4.72,85.83,313.76
487,6.4153695,2.3062284,Abomey-Calavi,Benin,1122713,1056440,0.0627,66273,grew,0.32,1.36,10.38,2.84,21.1,350.48
488,-25.966213,32.56745,Maputo,Mozambique,1121697,1110477,0.0101,11220,grew,1.67,4.67,42.2,15.17,16.81,560.76
489,-5.4460713,105.2643742,Bandar Lampung,Indonesia,1114740,1091512,0.0213,23228,grew,1.09,4.97,11.3,7.21,9.39,467.3
490,5.112735,7.364349,Aba,Nigeria,1114388,1081466,0.0304,32922,grew,6.91,7.11,99.46,37.23,56.51,767.71
491,34.3402702,118.0068173,Pizhou,China,1114385,1063231,0.0481,51154,grew,50.55,79.51,177.74,129.31,0,1522.06
492,6.019531,6.917181,Nnewi,Nigeria,1113546,1050860,0.0597,62686,grew,12.88,16.62,229.88,120.83,82.25,1976.01
493,-7.3262484,108.2201154,Tasikmalaya,Indonesia,1112112,1056485,0.0527,55627,grew,3.99,9.25,134.84,84.37,0,1762.39
494,13.6989939,-89.1914249,San Salvador,El Salvador,1107305,1105766,0.0014,1539,grew,12.28,2.55,9.23,7.8,105.86,293.73
495,37.2405741,127.1785572,Yongin,South Korea,1103265,1083345,0.0184,19920,grew,47.68,52.78,21.92,16.71,26.82,487.33
496,34.8113006,117.3178278,Zaozhuang,China,1101823,1087745,0.0129,14078,grew,62.94,82.94,227.55,165.21,0,1815.8
497,35.3021133,113.9202062,Xinxiang,China,1100407,1081031,0.0179,19376,grew,62.94,90.48,290.3,184.12,0.01,1976.01
498,28.1154378,120.9833927,Yueqing,China,1098931,1060702,0.036,38229,grew,10.97,94.59,120.7,115.63,0,974.66
499,33.5720554,114.0285163,Luohe,China,1096233,1039941,0.0541,56292,grew,120.16,80.2,249.37,153.44,0.02,1615.52
500,29.9880774,77.5081299,Saharanpur,India,1094581,1054102,0.0384,40479,grew,25.03,13.37,60.39,46.74,103,554.09
501,42.3337389,69.5169406,Shimkent,Kazakhstan,1093289,1057936,0.0334,35353,grew,25.99,36.67,39.4,34.71,26.82,453.95
502,18.9218274,-99.2342282,Cuernavaca,Mexico,1091173,1075022,0.015,16151,grew,1.58,0.6,10.48,8.07,87.98,240.33
503,40.1776245,44.5126174,Yerevan,Armenia,1089181,1086275,0.0027,2906,grew,5.36,78.83,17.63,15.12,17.88,333.79
504,37.6581862,126.8319452,Goyang,South Korea,1082815,1069196,0.0127,13619,grew,27.9,20.74,23.64,17.42,47.21,440.6
505,41.6934591,44.8014495,Tbilisi,Georgia,1078846,1077833,0.0009,1013,grew,1.54,31.53,127.49,114.69,35.41,1455.31
506,28.5000001,-106.0000001,Chihuahua,Mexico,1075861,1054766,0.02,21095,grew,0.76,1.61,2.7,0.98,94.41,216.96
507,41.1169056,122.0655098,Panjin,China,1075647,1053125,0.0214,22522,grew,32.42,35.64,52.56,36.61,36.12,647.54
508,58.5951603,56.3159546,Perm,Russia,1075424,1071419,0.0037,4005,grew,1.64,3.26,1.27,1.22,57.22,283.72
509,-3.3638125,29.3675028,Bujumbura,Burundi,1074642,1012996,0.0609,61646,grew,1.89,6.77,59.17,18.64,15.02,754.36
510,31.2920107,75.5680577,Jalandhar,India,1074383,1053670,0.0197,20713,grew,5.96,29.82,174.27,143.81,21.99,1281.74
511,12.1459907,-86.2746665,Managua,Nicaragua,1072852,1063698,0.0086,9154,grew,2.74,1.19,1.32,0.68,69.38,223.64
512,51.6605982,39.2005858,Voronezh,Russia,1072807,1067719,0.0048,5088,grew,3.37,6.08,6.11,5.36,67.95,287.06
513,10.4195841,-75.5271224,Cartagena,Colombia,1070692,1062622,0.0076,8070,grew,0.9,0.24,17.4,5.5,77.96,213.62
514,28.3754144,121.3812013,Wenling,China,1069840,1037164,0.0315,32676,grew,26.94,98.71,116.41,109.84,0,974.66
515,50.6365654,3.0635282,Lille,France,1068051,1063085,0.0047,4966,grew,1.68,31.53,10.38,7.71,6.44,433.92
516,32.8926763,115.8090001,Fuyang,China,1065192,1036162,0.028,29030,grew,43.87,87.74,248,200.97,0.01,1789.09
517,42.8765615,74.6070079,Bishkek,Kyrgyzstan,1060113,1038429,0.0209,21684,grew,10.01,23.31,41.99,39.91,70.81,433.92
518,37.9162222,40.2363542,Diyarbakir,Turkey,1059686,1039492,0.0194,20194,grew,28.13,34.96,50.73,46.99,43.63,507.36
519,31.8689322,106.7416618,Bazhong,China,1057600,991820,0.0663,65780,grew,5.07,16.45,53.38,32.55,39.34,594.14
520,26.7164127,88.4309916,Siliguri,India,1056551,1020303,0.0355,36248,grew,2.06,49.35,185.83,163.09,5.99,1562.12
521,59.9133301,10.7389701,Oslo,Norway,1056180,1041377,0.0142,14803,grew,8.7,20.91,10.79,8.72,37.19,373.84
522,28.4582821,117.9381305,Shangrao,China,1055178,1028518,0.0259,26660,grew,4.29,71.29,109.14,106.57,1.41,847.82
523,35.227956,128.6818586,Changwon,South Korea,1054775,1055974,-0.0011,1199,declined,14.19,8.91,7.63,6.11,67.95,303.75
524,30.3375134,112.2337792,Jingzhou Hubei,China,1054743,1038296,0.0158,16447,grew,14.78,28.1,72.12,38.36,36.48,554.09
525,31.6866105,118.5048377,Ma'anshan,China,1051771,1019389,0.0318,32382,grew,107.77,104.19,116.63,97.59,0,1735.69
526,23.0496201,112.4593053,Zhaoqing,China,1050908,1023777,0.0265,27131,grew,6.5,43.18,74.83,70.6,8.32,827.79
527,51.2211097,4.3997081,Antwerp,Belgium,1047613,1042471,0.0049,5142,grew,4.41,40.78,10.5,9.45,2.12,420.57
528,34.3789744,46.7010122,Kermanshah,Iran,1046604,1025740,0.0203,20864,grew,3.46,14.22,38.63,26.89,58.65,393.87
529,39.0480479,115.9075331,Xiongan,China,1045719,969535,0.0786,76184,grew,29.8,34.27,55.98,29.55,38.27,527.38
530,10.9560264,106.8529805,Bien Hoa,Vietnam,1045708,1013064,0.0322,32644,grew,11.68,20.74,49.16,38.33,37.91,761.03
531,1.4728119,103.7642651,Johor Bahru,Malaysia,1044548,1023900,0.0202,20648,grew,1.64,3.94,28.47,21.39,41.13,357.15
532,17.8499067,75.2763203,Solapur,India,1041886,1031037,0.0105,10849,grew,3.79,9.68,64.88,54.6,52.21,500.68
533,-0.5017804,117.1393089,Samarinda,Indonesia,1041183,1010413,0.0305,30770,grew,1.59,6.68,5.19,4.94,2.5,397.21
534,43.6044622,1.4442469,Toulouse,France,1037115,1024166,0.0126,12949,grew,0.45,6.26,3.49,2.62,60.8,277.04
535,36.8117583,34.6292679,Mersin,Turkey,1034693,1016019,0.0184,18674,grew,0.75,7.28,4.33,2.76,73.67,293.73
536,9.561733,44.061803,Hargeysa,Somalia,1033205,988716,0.045,44489,grew,0.51,1.07,20.08,9.52,59.37,320.44
537,-5.0896403,-42.809588,Teresina,Brazil,1031220,1021229,0.0098,9991,grew,1.68,2.27,3.14,1.88,69.38,367.17
538,35.4703415,44.395723,Kirkuk,Iraq,1031082,1012614,0.0182,18468,grew,10.01,42.5,23.79,15.29,49.35,520.71
539,27.9511188,116.3530413,Fuzhou Jiangxi,China,1028734,989880,0.0393,38854,grew,15.26,86.37,149.9,140.92,2.95,1054.76
540,-10.9162061,-37.0774655,Aracaju,Brazil,1026529,1009380,0.017,17149,grew,4.59,3.17,3.5,1.32,36.84,277.04
541,11.1757783,-4.2957591,Bobo-Dioulasso,Burkina Faso,1022118,972124,0.0514,49994,grew,4.11,6.51,173.75,76.79,50.07,881.2
542,29.5851296,103.747791,Leshan,China,1022088,986923,0.0356,35165,grew,7.87,31.19,67.37,45.55,35.05,727.65
543,29.3594838,113.1229551,Yueyang,China,1021350,1009534,0.0117,11816,grew,48.16,98.71,140.69,117.24,0.25,974.66
544,37.4486676,116.305416,Dezhou,China,1019111,986192,0.0334,32919,grew,42.44,45.93,78.89,49.44,36.48,714.3
545,31.6267948,-8.0030243,Marrakech,Morocco,1017379,1002709,0.0146,14670,grew,0.68,3.17,50.89,13.18,92.98,205.28
546,22.2329889,-97.8614802,Tampico,Mexico,1016514,1001278,0.0152,15236,grew,9.78,1.78,23.13,18.82,104.43,307.08
547,30.8942995,120.0851114,Huzhou,China,1015538,988351,0.0275,27187,grew,41.01,87.05,92.8,80.75,3.67,774.38
548,51.9244424,4.47775,Rotterdam,Netherlands,1012007,1010026,0.002,1981,grew,4.17,45.24,10.48,9.92,0,487.33
549,12.789585,45.028504,Aden,Yemen,1011890,980455,0.0321,31435,grew,3.49,2.27,22.18,12.24,70.1,267.03
550,30.2711286,-97.7436995,Austin,United States,1011790,995347,0.0165,16443,grew,0.49,1.65,8.59,4.23,77.25,250.34
551,37.3361905,-121.890583,San Jose,United States,1009340,1015570,-0.0061,6230,declined,6.5,52.78,20.08,14.49,22.17,514.03
552,-8.6524973,115.2191175,Denpasar,Indonesia,1008709,986853,0.0221,21856,grew,1.12,3.86,4.3,3.02,11.98,397.21
553,46.4873195,30.7392776,Odesa,Ukraine,1008508,1009289,-0.0008,781,declined,5.19,10.45,14.37,12.25,57.22,313.76
554,25.7733598,113.0094337,Chenzhou,China,1004240,959881,0.0462,44359,grew,25.75,90.48,132.75,125.84,0,1041.41
555,34.0457133,113.8225908,Xuchang,China,1001570,968135,0.0345,33435,grew,48.16,83.63,186.68,111.23,0.04,1201.63
556,48.7081906,44.5153353,Volgograd,Russia,1000755,1004688,-0.0039,3933,declined,32.42,23.31,6,4.97,46.49,347.14
557,25.4230425,-100.9927509,Saltillo,Mexico,1000750,983784,0.0172,16966,grew,0.11,0.42,4.78,2.83,75.1,208.62
558,-26.8303703,-65.2038133,San Miguel de Tucuman,Argentina,999907,985656,0.0145,14251,grew,0.32,1.13,6.6,6.02,32.9,350.48
559,15.3389667,38.9326763,Asmara,Eritrea,998321,962985,0.0367,35336,grew,1.04,3.51,26.71,13.53,51.5,594.14
560,-0.9247587,100.3632561,Padang,Indonesia,997358,980455,0.0172,16903,grew,7.27,48.67,62.84,49.52,2.12,2109.53
561,10.2931062,123.9020773,Cebu City,Philippines,993744,980070,0.014,13674,grew,5.48,12.34,17.57,14.05,12.88,507.36
562,16.8680495,-99.8940182,Acapulco de Juarez,Mexico,992205,979381,0.0131,12824,grew,0.56,0.4,16.07,11.72,74.39,253.68
563,-33.0458456,-71.6196749,Valparaiso,Chile,992183,983751,0.0086,8432,grew,0.43,0.12,11.68,5.53,34.69,216.96
564,4.927456,-1.7490216,Sekondi Takoradi,Ghana,990661,945519,0.0477,45142,grew,0.51,2.66,3.42,1.83,19.13,320.44
565,6.6191233,3.5041271,Ikorodu,Nigeria,989117,937615,0.0549,51502,grew,10.49,23.99,94.32,51.34,8.58,1642.23
566,38.6582232,35.5546374,Kayseri,Turkey,986987,973506,0.0138,13481,grew,11.68,12.68,22.35,21.06,71.53,383.85
567,17.9819448,79.5969982,Warangal,India,983128,959658,0.0245,23470,grew,2.44,8.23,92.88,80.75,58.65,640.87
568,31.6572954,120.7480757,Changshu,China,981654,938683,0.0458,42971,grew,20.98,24.68,35.65,26.35,60.08,447.27
569,44.841225,-0.5800364,Bordeaux,France,980130,968993,0.0115,11137,grew,0.8,5.48,3.69,2.74,62.94,267.03
570,6.8790221,100.5498542,Songkhla,Thailand,979453,966597,0.0133,12856,grew,1.97,8.74,31.67,26.37,38.98,600.82
571,25.4936418,103.7943084,Qujing,China,976171,942342,0.0359,33829,grew,6.86,18.17,50.32,47.6,33.62,540.73
572,13.8610918,100.3456772,Nonthaburi,Thailand,975497,962694,0.0133,12803,grew,4.47,21.25,194.04,128.24,30.4,1588.82
573,27.81697,114.4112498,Yichun Jiangxi,China,975387,918051,0.0625,57336,grew,6.8,87.74,147.69,140.07,0,1134.87
574,45.0352566,38.9764814,Krasnodar,Russia,974377,957214,0.0179,17163,grew,4.65,6.94,13.15,12.5,64.37,313.76
575,8.4963657,4.5480484,Ilorin,Nigeria,973671,949866,0.0251,23805,grew,1.61,3.51,191.53,66.9,65.8,494
576,21.1617854,-86.8510468,Cancun,Mexico,971798,943922,0.0295,27876,grew,0.26,0.47,7.93,2.04,68.67,210.29
577,-6.4230495,20.7887691,Tshikapa,DR Congo,970831,919192,0.0562,51639,grew,0.11,0.62,4.85,2.14,10.46,447.27
578,12.0505098,24.8795115,Nyala,Sudan,967430,922532,0.0487,44898,grew,0.38,0.7,144.22,35.09,105.86,230.31
579,35.9068588,117.76243,Xintai,China,966759,936382,0.0324,30377,grew,45.3,76.08,149.93,102.95,1,1308.44
580,45.2928513,130.9619259,Jixi Heilongjiang,China,963278,949646,0.0144,13632,grew,7.03,8.57,6.26,4.79,66.52,317.1
581,-15.8241847,35.053104,Blantyre-Limbe,Malawi,962145,932263,0.0321,29882,grew,3.04,9.08,52.34,39.54,1.43,1268.39
582,19.7027116,-101.1923818,Morelia,Mexico,961834,948793,0.0137,13041,grew,2.77,0.86,8.95,8.02,90.12,247
583,27.6603206,113.8830806,Pingxiang Jiangxi,China,953042,928895,0.026,24147,grew,7.75,89.11,138.96,131.45,0.76,1041.41
584,48.4680221,35.0417711,Dnipro,Ukraine,951821,957345,-0.0058,5524,declined,3.46,21.08,7.68,5.75,52.93,307.08
585,22.9372087,89.2852741,Khulna,Bangladesh,949229,953745,-0.0047,4516,declined,3.04,20.56,170.64,148.95,41.49,1108.17
586,31.7788242,35.2257626,Jerusalem,Israel,944188,931756,0.0133,12432,grew,5.78,18.17,5.04,3.2,77.25,233.65
587,45.9893785,23.2575051,Cucuta,Colombia,943489,933380,0.0108,10109,grew,1.86,11.31,27.84,23.2,52.93,357.15
588,43.7009358,7.2683912,Nice,France,943342,942208,0.0012,1134,grew,9.54,55.52,23.59,20.89,11.98,640.87
589,30.3255646,78.0436813,Dehradun,India,943136,918946,0.0263,24190,grew,5.25,17.99,70.11,53.2,75.82,700.95
590,37.4201556,127.1262092,Seongnam,South Korea,942342,943768,-0.0015,1426,declined,45.3,47.98,22.92,17.26,26.46,494
591,32.753177,-97.3327459,Fort Worth,United States,942323,925954,0.0177,16369,grew,0.6,6.51,7.33,6.05,46.49,307.08
592,30.4211144,-9.5830626,Agadir,Morocco,941839,923552,0.0198,18287,grew,1.04,2.1,45.01,13.71,87.26,206.95
593,44.5498406,129.6259558,Mudanjiang,China,941660,925522,0.0174,16138,grew,7.75,9.17,10.91,9.2,67.23,353.81
594,23.3515642,58.7213422,Hamah,Syria,939904,921502,0.02,18402,grew,3.52,9.43,43.17,21.93,105.86,293.73
595,38.5762709,68.7863573,Dushanbe,Tajikistan,938444,915712,0.0248,22732,grew,22.65,13.02,12.44,10.52,67.95,400.54
596,23.3916357,110.074064,Guiping,China,937152,891158,0.0516,45994,grew,11.21,22.62,85.82,80.28,13.05,714.3
597,29.6653828,115.9474861,Jiujiang,China,936927,913212,0.026,23715,grew,20.74,79.51,231.96,196.15,0,1455.31
598,50.9025349,-1.404189,Southampton,United Kingdom,935868,927916,0.0086,7952,grew,2.24,37.01,5.97,5.16,0.02,440.6
599,36.2030789,117.654083,Laiwu,China,934916,907839,0.0298,27077,grew,38.62,59.63,130.17,81.03,12.16,1068.12
600,-16.3988667,-71.5369607,Arequipa,Peru,934845,922999,0.0128,11846,grew,0.95,5.74,8.75,2.39,27.18,226.97
601,8.3223763,-62.6896622,Ciudad Guayana,Venezuela,933968,917700,0.0177,16268,grew,0.13,0.53,3.46,0.75,66.52,223.64
602,6.9046909,122.076462,Zamboanga City,Philippines,930610,917477,0.0143,13133,grew,4.41,19.36,11.58,10.49,18.95,520.71
603,19.333333,-96.666667,Veracruz,Mexico,930387,918529,0.0129,11858,grew,4.95,1.76,22.68,20.5,128.75,360.49
604,30.3321838,-81.655651,Jacksonville,United States,929647,920577,0.0099,9070,grew,0.57,1.74,8.08,4.05,88.69,223.64
605,15.5062156,-88.0248937,San Pedro Sula,Honduras,929191,902751,0.0293,26440,grew,3.87,1.06,17.49,14.73,101.57,340.46
606,27.702973,115.49664,Zhucheng,China,926596,891494,0.0394,35102,grew,34.81,85.68,136.95,126.43,0.7,961.3
607,14.048667,100.5640405,Pathum Thani,Thailand,925893,913741,0.0133,12152,grew,3.99,26.39,150.07,115.06,2.62,1495.36
608,24.4611511,88.6888703,Rajshahi,Bangladesh,924033,907732,0.018,16301,grew,5.96,37.01,166.34,129.65,31.83,1174.93
609,40.957718,117.9543248,Chengde,China,920395,880494,0.0453,39901,grew,11.56,16.28,47.29,23.66,53.64,460.63
610,32.3745318,15.0904886,Misratah,Libya,918946,881319,0.0427,37627,grew,2.35,14.57,118.12,31.2,79.39,447.27
611,23.1144539,109.5946193,Guigang,China,917484,891173,0.0295,26311,grew,30.52,28.79,115.66,112.6,17.35,720.98
612,9.9175125,8.8979401,Jos,Nigeria,917289,895288,0.0246,22001,grew,1.18,2.83,403.45,103.59,67.95,370.5
613,26.0704018,-98.2963932,Reynosa,Mexico,917021,899084,0.02,17937,grew,1.55,1.84,9.89,6.84,80.82,253.68
614,32.9176422,117.3825673,Bengbu,China,915242,901773,0.0149,13469,grew,29.09,78.83,149.8,120.34,0.35,1214.98
615,39.9622601,-83.0007065,Columbus,United States,913921,906237,0.0085,7684,grew,7.33,29.47,15.98,14.91,37.55,390.53
616,18.0018152,-92.9330401,Villahermosa,Mexico,913606,898461,0.0169,15145,grew,10.85,1.16,5.14,4.69,85.12,230.31
617,21.8603337,111.9776773,Yangjiang,China,912468,890013,0.0252,22455,grew,7.51,26.73,84.99,77.46,19.31,614.17
618,35.2272086,-80.8430827,Charlotte,United States,912096,898902,0.0147,13194,grew,2.59,16.11,4.72,4.16,44.35,337.12
619,35.5391697,129.3119136,Ulsan,South Korea,910778,910330,0.0005,448,grew,10.85,9.6,7.18,5.42,67.23,290.39
620,4.3907153,18.5509126,Bangui,Central African Republic,910270,889231,0.0237,21039,grew,0.04,0.13,55.15,24.28,12.34,310.42
621,35.7032751,-0.6492976,Oran,Algeria,910030,899182,0.0121,10848,grew,0.66,1.09,4.76,1.86,101.57,223.64
622,43.3545179,42.4311796,West Rand,South Africa,909301,897609,0.013,11692,grew,0.57,0.6,7.63,4.36,95.84,181.91
623,5.489736,7.0341973,Owerri,Nigeria,908109,872604,0.0407,35505,grew,4.47,7.45,99.19,47.46,41.49,1041.41
624,-20.4640173,-54.6162947,Campo Grande,Brazil,907028,896864,0.0113,10164,grew,0.09,0.47,0.76,0.5,21.46,263.69
625,53.4071991,-2.99168,Liverpool,United Kingdom,906443,901708,0.0053,4735,grew,4.05,22.96,7.13,6.13,47.21,307.08
626,14.5870262,121.1758611,Antipolo,Philippines,902993,881018,0.0249,21975,grew,18.84,35.99,67.29,43.36,0.02,1522.06
627,32.0010227,44.3299926,Najaf,Iraq,901405,873744,0.0317,27661,grew,4.53,7.97,24.7,13.67,87.98,397.21
628,24.5164639,117.6424895,Zhangzhou,China,900904,871690,0.0335,29214,grew,61.04,34.96,204.39,200.28,0,2429.96
629,45.7566557,9.7542192,Bergamo,Italy,900094,892089,0.009,8005,grew,0.83,42.5,44.98,39.56,1.43,867.84
630,48.0158753,37.8013407,Donetsk,Ukraine,899325,905530,-0.0069,6205,declined,20.27,9,7.4,5.38,69.38,300.41
631,30.6635516,113.1616191,Tianmen,China,899094,869837,0.0336,29257,grew,16.45,21.94,102.64,54.09,40.05,554.09
632,5.517,5.75,Warri,Nigeria,898927,855941,0.0502,42986,grew,0.12,0.57,7.55,1.92,22.71,330.45
633,-23.3112878,-51.1595023,Londrina,Brazil,898681,885516,0.0149,13165,grew,1.16,8.4,22.74,20.53,61.51,500.68
634,26.40396,112.934066,Leiyang,China,896394,851071,0.0533,45323,grew,39.58,109.67,149.21,138.67,0,1121.52
635,-7.9771206,112.6340291,Malang,Indonesia,896009,886620,0.0106,9389,grew,11.33,15.77,101.01,72.05,0,2483.37
636,-34.9206797,-57.9537638,La Plata,Argentina,894159,884054,0.0114,10105,grew,1.16,0.69,48.32,8.77,31.47,198.6
637,-36.8270795,-73.0502399,Concepcion,Chile,891744,880722,0.0125,11022,grew,0.17,0.47,2.95,1.12,34.69,201.94
638,37.7364305,115.6677229,Hengshui,China,891603,856705,0.0407,34898,grew,38.62,33.24,77.05,46.08,40.41,667.57
639,36.0885338,111.512998,Linfen,China,891049,858103,0.0384,32946,grew,11.92,10.11,52.58,18.94,72.24,303.75
640,27.853572,114.8867147,Xinyu,China,890884,857567,0.0389,33317,grew,22.17,89.11,142.81,135.04,1.38,1028.06
641,24.5910781,91.7177362,Sylhet,Bangladesh,890180,851808,0.045,38372,grew,2.62,23.65,175.98,144.95,27.54,1188.28
642,40.128668,124.3863404,Dandong,China,890031,877258,0.0146,12773,grew,19.31,39.07,43.83,30.55,33.26,660.9
643,39.7683331,-86.1583502,Indianapolis,United States,887232,881808,0.0062,5424,grew,6.26,20.05,18.28,16.18,55.79,347.14
644,-14.966969,39.2707752,Nampula,Mozambique,887055,848096,0.0459,38959,grew,0.04,0.11,1.97,1.03,7.15,240.33
645,31.1244028,104.39013,Deyang,China,885818,857306,0.0333,28512,grew,47.21,76.08,201.04,124.93,2.62,1441.96
646,29.0948207,-110.9692202,Hermosillo,Mexico,883916,867885,0.0185,16031,grew,6.44,7.63,24.35,8,107.29,370.5
647,37.7790262,-122.419906,San Francisco,United States,883255,882402,0.001,853,grew,10.25,42.5,23.97,19.21,35.41,420.57
648,39.4605657,-5.8816626,Trujillo,Peru,877875,864633,0.0153,13242,grew,0.05,1.5,1.91,1.57,55.08,236.99
649,13.4115414,43.5570871,Taiz,Yemen,875941,845154,0.0364,30787,grew,5.31,2.44,88.24,18.14,74.39,253.68
650,16.2915189,80.4541588,Guntur,India,875474,854488,0.0246,20986,grew,4.89,7.03,64.36,52.69,57.94,433.92
651,31.9092756,120.2630426,Jiangyin,China,874924,843292,0.0375,31632,grew,11.8,35.99,74.32,60.84,34.33,687.6
652,19.3625308,73.0784747,Bhiwandi,India,874032,859435,0.017,14597,grew,24.56,7.88,94.32,72.38,120.16,574.11
653,-14.9191779,13.4896316,Lubango,Angola,870935,828248,0.0515,42687,grew,0.35,1.74,2.94,1.34,16.63,320.44
654,41.273887,123.1693463,Liaoyang,China,870185,855663,0.017,14522,grew,156.4,108.3,210.95,137.08,0,3524.78
655,29.394644,71.6638747,Bahawalpur,Pakistan,869548,844673,0.0294,24875,grew,13.59,30.85,347.44,298.05,100.14,1869.2
656,36.1829336,113.0985394,Changzhi,China,868308,846365,0.0259,21943,grew,80.11,72.66,131.26,80.5,1.54,1174.93
657,57.153534,65.542274,Tyumen,Russia,866741,843196,0.0279,23545,grew,1.09,2.08,0.74,0.57,72.24,263.69
658,-25.5263889,28.0994444,Soshanguve,South Africa,866005,853347,0.0148,12658,grew,7.87,6.43,6.49,3.28,26.82,300.41
659,16.753801,-93.115959,Tuxtla Gutierrez,Mexico,865000,847924,0.0201,17076,grew,1.79,0.73,7.15,6.58,73.67,236.99
660,37.9404648,58.3823487,Ashgabat,Turkmenistan,864695,846255,0.0218,18440,grew,17.64,189.19,74.66,32.71,0,620.84
661,36.1911624,44.0094652,Erbil,Iraq,861158,846374,0.0175,14784,grew,70.57,149.43,24.3,18.44,0,2616.88
662,41.9316387,126.4200169,Baishan,China,859381,821967,0.0455,37414,grew,16.93,21.94,38.72,30.2,40.41,507.36
663,27.6500795,113.4923249,Liling,China,857167,812975,0.0544,44192,grew,22.89,111.04,173.45,160.18,0,1121.52
664,22.9912348,120.184982,Tainan,Taiwan,856736,849996,0.0079,6740,grew,28.37,33.24,26.89,25.4,30.4,467.3
665,11.9340568,79.8306447,Puducherry,India,856354,836003,0.0243,20351,grew,2.56,17.65,62.41,46.38,45.06,560.76
666,24.7978965,-107.393395,Culiacan,Mexico,856072,839054,0.0203,17018,grew,1.71,5.66,6.05,4.94,92.98,330.45
667,29.034552,111.6928724,Changde,China,853497,830010,0.0283,23487,grew,15.74,20.56,69.18,35.07,47.92,487.33
668,42.0151733,121.6452868,Fuxin,China,850647,839189,0.0137,11458,grew,10.37,11.14,21.91,10.9,62.23,323.77
669,38.1112268,13.3524434,Palermo,Italy,850179,851146,-0.0011,967,declined,3.16,39.41,15.55,14.24,36.84,774.38
670,34.4168215,115.6507447,Shangqiu,China,850165,826598,0.0285,23567,grew,55.79,109.67,201.97,156.1,0,1562.12
671,37.0616519,114.499746,Xingtai,China,849674,831175,0.0223,18499,grew,13.95,21.25,60.18,28.39,47.21,390.53
672,25.4100012,49.580833,Hufuf-Mubarraz,Saudi Arabia,848479,836727,0.014,11752,grew,7.15,13.02,76.63,32.75,105.86,307.08
673,27.1773663,78.389912,Firozabad,India,845746,821043,0.0301,24703,grew,6.26,12.85,70.34,51.91,78.68,580.79
674,0.390002,9.454001,Libreville,Gabon,845100,834204,0.0131,10896,grew,3.87,4.76,7.55,5.31,14.48,473.98
675,30.200255,115.0333466,Huangshi,China,844307,828324,0.0193,15983,grew,15.5,72.66,192.55,171.89,9.84,1081.47
676,51.530018,46.034683,Saratov,Russia,840883,842680,-0.0021,1797,declined,4.95,9.34,3.57,3.04,71.53,300.41
677,31.9553965,35.8906094,Banghazi,Libya,836031,823974,0.0146,12057,grew,4.59,12.51,6.38,3.26,85.12,267.03
678,39.4697065,-0.3763353,Valencia,Spain,835341,833724,0.0019,1617,grew,1.94,54.15,12.42,10.7,11.18,423.91
679,28.8744722,105.4385063,Luzhou,China,833637,822996,0.0129,10641,grew,27.66,50.72,68.35,46.66,19.31,714.3
680,46.8137431,-71.2084061,Quebec City,Canada,831776,826109,0.0069,5667,grew,9.18,13.02,8.58,6.54,64.37,397.21
681,28.7701941,104.6289601,Yibin,China,831013,814166,0.0207,16847,grew,20.5,24.33,33.64,22.24,62.23,447.27
682,37.5014422,126.7660139,Bucheon,South Korea,829592,832093,-0.003,2501,declined,18.12,15.08,17.85,12.73,56.51,367.17
683,4.5986817,101.0900236,Ipoh,Malaysia,827719,813553,0.0174,14166,grew,13.59,38.04,55.78,52.33,30.04,1201.63
684,49.8955367,-97.1384584,Winnipeg,Canada,824771,816593,0.01,8178,grew,1.07,2.79,3.31,2.6,58.65,303.75
685,24.8500662,89.3728431,Bogra,Bangladesh,820297,775034,0.0584,45263,grew,1.8,26.73,132.35,102.34,19.31,1028.06
686,-5.056395,12.3211749,Cabinda,Angola,819452,777697,0.0537,41755,grew,0.09,2.04,4.62,3.65,34.33,440.6
687,5.5324032,7.4924165,Umuahia,Nigeria,816983,773822,0.0558,43161,grew,9.3,15.25,270.98,129.1,34.69,2162.93
688,32.127372,114.0676596,Xinyang,China,816967,797369,0.0246,19598,grew,42.92,72.66,159.25,79.39,0.03,881.2
689,32.9139151,119.8476035,Xinghua,China,815780,791297,0.0309,24483,grew,21.46,74.03,143.81,118.74,0.18,1255.04
690,54.9738474,-1.6131572,Newcastle upon Tyne,United Kingdom,813807,809481,0.0053,4326,grew,2.44,6.34,9.77,7.69,81.54,270.37
691,37.85862,113.5730276,Yangquan,China,813696,794262,0.0245,19434,grew,51.02,42.84,87.33,34.13,38.98,433.92
692,40.6403167,22.9352716,Thessaloniki,Greece,812964,812166,0.001,798,grew,2.53,4.16,6.11,4.97,92.98,273.71
693,26.423568,111.6081495,Yongzhou,China,809415,781940,0.0351,27475,grew,26.46,45.24,97.37,84.39,23.6,654.22
694,44.4938203,11.3426327,Bologna,Italy,808931,805986,0.0037,2945,grew,1.13,34.62,46.37,42.26,0.3,847.82
695,37.5493473,45.0682863,Orumiyeh,Iran,808149,793044,0.019,15105,grew,13.47,49.35,28.11,26.4,75.1,527.38
696,30.919414,113.9516901,Xiaogan,China,806258,783483,0.0291,22775,grew,19.07,104.19,182.99,158.77,1.77,1255.04
697,35.2477266,115.4464761,Heze,China,804759,795246,0.012,9513,grew,53.41,85,152.03,114.78,4.2,1255.04
698,10.1898503,-64.7087416,Barcelona-Puerto La Cruz,Venezuela,804488,793641,0.0137,10847,grew,1.39,0.47,3.1,0.97,73.67,226.97
699,11.8395375,13.1536214,Maiduguri,Nigeria,802988,786485,0.021,16503,grew,0.23,0.91,409.59,101.46,68.67,247
700,41.7238743,86.173541,Kuerle,China,801993,761329,0.0534,40664,grew,1,4.93,204.88,58.79,78.68,263.69
701,37.6452283,138.7669125,Niigata,Japan,801982,804298,-0.0029,2316,declined,0.43,1.24,5.16,3.36,95.84,270.37
702,39.7666813,30.5255947,Eskisehir,Turkey,801612,783669,0.0229,17943,grew,3.22,6.6,3.8,3.39,81.54,263.69
703,9.740204,76.3324672,Cherthala,India,801264,764135,0.0486,37129,grew,4.05,6.77,61.28,46.36,104.43,494
704,28.9268429,118.8759775,Quzhou,China,798191,757655,0.0535,40536,grew,25.27,104.19,126.46,121.99,0.07,1028.06
705,29.7296617,120.1805427,Zhuji,China,796974,777536,0.025,19438,grew,46.73,112.41,142.83,126.62,0,1148.22
706,-23.5003451,-47.4582864,Sorocaba,Brazil,795569,785997,0.0122,9572,grew,0.92,3.98,17.89,16.37,104.43,353.81
707,40.8515302,122.7475513,Haicheng,China,795424,783484,0.0152,11940,grew,602.72,76.08,153.59,130.18,0,4539.49
708,6.5536094,7.4143061,Enugu,Nigeria,795271,772872,0.029,22399,grew,4.83,9.34,195.93,81.96,47.92,1041.41
709,52.9534193,-1.1496461,Nottingham,United Kingdom,794008,787610,0.0081,6398,grew,4.47,14.57,10.55,9.52,51.5,320.44
710,34.5797531,105.7062921,Tianshui,China,790461,765372,0.0328,25089,grew,15.74,26.39,69.66,46.96,44.7,727.65
711,40.7515443,120.8404789,Huludao,China,790403,775322,0.0195,15081,grew,7.87,10.8,29.61,12.56,67.23,347.14
712,19.5408338,-96.9146374,Xalapa,Mexico,787349,775620,0.0151,11729,grew,7.99,19.19,26.06,22.99,118.73,567.44
713,28.0159286,73.3171367,Bikaner,India,786652,771878,0.0191,14774,grew,4.35,13.02,141.19,83.84,76.53,540.73
714,50.1106444,8.6820917,Frankfurt,Germany,784780,777156,0.0098,7624,grew,3.55,38.04,34.55,30.59,0.18,480.65
715,27.5611227,109.963365,Huaihua,China,784323,751803,0.0433,32520,grew,10.01,8.57,26.21,18.61,70.81,340.46
716,15.2241917,101.9313754,Nakhon Ratchasima,Thailand,783180,774022,0.0118,9158,grew,2.15,12.85,70.74,63.49,37.19,894.55
717,-26.6747222,27.9261111,Vereeniging,South Africa,779530,774031,0.0071,5499,grew,30.52,33.59,44.05,25.65,46.49,854.49
718,36.4441808,115.9642007,Liaocheng,China,778562,760885,0.0232,17677,grew,34.81,34.96,91.59,57.13,41.49,767.71
719,47.6038321,-122.3300624,Seattle,United States,776555,765115,0.015,11440,grew,5.72,32.9,15.5,10.73,58.65,467.3
720,35.2075729,113.2533977,Jiaozuo,China,775685,766770,0.0116,8915,grew,49.59,61.69,91.93,47.92,18.95,594.14
721,33.8579594,115.772453,Bozhou,China,773217,742150,0.0419,31067,grew,32.42,101.45,215.7,168.67,0.08,1615.52
722,14.4493717,79.9873763,Nellore,India,772941,751034,0.0292,21907,grew,1.65,6.43,71.1,58.48,45.42,487.33
723,43.2560802,-79.8728583,Hamilton,Canada,770976,766688,0.0056,4288,grew,9.66,18.85,5.31,3.3,59.37,327.11
724,40.8006696,29.431767,Gebze,Turkey,769633,744674,0.0335,24959,grew,7.75,9.85,12.84,10.48,75.1,320.44
726,32.1738588,120.0466771,Taixing,China,769620,747588,0.0295,22032,grew,16.21,68.55,105.79,86.05,4.96,921.25
725,8.4756417,124.6421532,Cagayan de Oro City,Philippines,769620,753138,0.0219,16482,grew,1.28,4.03,13.58,11.67,41.49,387.19
727,50.0619474,19.9368564,Krakow,Poland,769307,768731,0.0007,576,grew,21.22,21.76,28.14,19.85,53.64,410.56
728,31.3869323,120.9764683,Kunshan,China,769021,737654,0.0425,31367,grew,14.66,23.99,32.76,24.9,62.23,417.23
729,24.8136095,113.5922116,Shaoguan,China,767557,761249,0.0083,6308,grew,14.07,80.88,124.57,119.14,0,1188.28
730,26.6711433,83.3645724,Gorakhpur,India,766646,758214,0.0111,8432,grew,15.74,9.68,102.32,79.81,92.98,600.82
731,14.3270819,120.9370871,Dasmarinas,Philippines,765742,747208,0.0248,18534,grew,19.31,21.08,19.68,11.95,34.33,494
732,21.1545412,77.6442962,Amravati,India,764645,752189,0.0166,12456,grew,1.97,9.85,51.44,37.23,58.65,440.6
733,35.493783,112.8519862,Jincheng,China,763554,733879,0.0404,29675,grew,27.42,23.31,105.22,50.27,42.92,580.79
734,39.5128345,116.6997446,Langfang,China,763320,739632,0.032,23688,grew,62.94,80.88,110.17,74.43,0.22,1148.22
735,43.6908432,0.7735233,Ansan,South Korea,762698,760764,0.0025,1934,grew,0.14,4.03,2.86,2.6,55.79,253.68
736,24.9304741,50.9776888,Ar-Rayyan,Qatar,759174,737903,0.0288,21271,grew,5.19,22.96,115.31,70.23,86.55,333.79
737,35.5574725,45.435202,Sulaimaniya,Iraq,758795,739182,0.0265,19613,grew,34.81,35.64,66.83,29.31,62.23,433.92
738,20.4686,85.8792,Cuttack,India,751859,742011,0.0133,9848,grew,4.47,5.66,79.52,67.74,98.71,423.91
739,31.263235,32.305505,Bur Sa'id,Egypt,750373,737000,0.0181,13373,grew,1.16,1.41,10.81,2.71,105.86,233.65
740,39.7392364,-104.9848623,Denver,United States,749103,738157,0.0148,10946,grew,3.87,7.63,4.27,3.23,62.94,283.72
741,30.079061,103.8458201,Meishan,China,748981,723267,0.0356,25714,grew,10.01,32.9,94.39,58.85,27.54,814.44
742,33.0115818,114.0164565,Zhumadian,China,747329,716002,0.0438,31327,grew,30.99,56.21,193.24,89.39,6.26,907.9
743,29.3419256,104.7761224,Zigong,China,746711,737291,0.0128,9420,grew,9.42,28.1,125.37,78.53,17.52,1068.12
744,-12.9104657,14.0356608,Benguela,Angola,745372,715130,0.0423,30242,grew,1.58,1.16,4.01,2.34,38.62,400.54
745,36.3654065,119.8005385,Gaomi,China,745055,716261,0.0402,28794,grew,42.92,47.98,79.32,55.1,21.99,794.41
746,30.6592336,116.6302585,Anqing,China,744768,726950,0.0245,17818,grew,13.83,37.36,156.35,141.87,33.98,907.9
747,23.6832984,113.0505994,Qingyuan,China,744726,734856,0.0134,9870,grew,8.35,76.08,80.91,76.68,0,1094.82
748,-3.3187496,114.5925828,Banjarmasin,Indonesia,744334,732005,0.0168,12329,grew,0.41,4.07,9.5,8.56,5.32,467.3
749,30.6751205,113.8323146,Hanchuan,China,743610,715218,0.0397,28392,grew,25.75,98.71,175.55,150.28,5.45,1174.93
750,32.0109736,119.6012702,Danyang,China,743482,718649,0.0346,24833,grew,21.46,95.96,168.2,140.57,0,1308.44
751,29.4480063,77.740685,Muzaffarnagar,India,742227,716748,0.0355,25479,grew,7.15,8.14,69.12,54.77,97.28,580.79
752,7.802355,6.7430327,Lokoja,Nigeria,741482,692050,0.0714,49432,grew,0.53,1.15,139.58,50.39,50.07,380.52
753,32.6450475,130.6341345,Kumamoto,Japan,741455,742612,-0.0016,1157,declined,3.4,9.17,9.61,7.65,75.1,370.5
754,9.6287383,76.6455326,Kottayam,India,739212,696061,0.062,43151,grew,12.04,54.84,106,76.58,16.27,1188.28
755,15.8572666,74.5069343,Belgaum,India,738074,724747,0.0184,13327,grew,6.14,11.14,104.26,90.96,84.4,707.63
756,32.0668425,36.0885771,Zarqa,Jordan,737085,729220,0.0108,7865,grew,2.65,16.11,7.35,4.97,78.68,283.72
757,11.0248119,7.6518533,Zaria,Nigeria,736098,726172,0.0137,9926,grew,2.41,6.17,353.02,98.28,90.84,560.76
758,53.3806626,-1.4702278,Sheffield,United Kingdom,735292,730158,0.007,5134,grew,4.05,16.79,9.76,8.65,52.21,313.76
759,-6.0999443,39.3209443,Zanzibar,Tanzania,734832,705078,0.0422,29754,grew,0.19,0.39,6.4,2.58,37.19,310.42
760,31.5128679,34.4581358,Gaza,Palestine,734547,713621,0.0293,20926,grew,0.78,0.37,4.68,1.54,108.72,226.97
761,41.6521342,-0.8809428,Zaragoza,Spain,733825,730828,0.0041,2997,grew,0.14,2.29,0.84,0.67,74.39,270.37
762,28.8602058,121.1419179,Linhai,China,732334,708981,0.0329,23353,grew,20.5,97.33,119.2,111.36,0,947.95
763,47.8507859,35.1182867,Zaporizhzhya,Ukraine,731984,736167,-0.0057,4183,declined,3.34,6.68,7.13,4.47,70.81,277.04
764,20.5902502,74.5714979,Malegaon,India,731493,715605,0.0222,15888,grew,3.22,5.83,55.54,36.28,56.51,390.53
765,-23.1860383,-45.8866816,Sao Jose dos Campos,Brazil,731481,721795,0.0134,9686,grew,0.54,1.33,3.13,1.79,60.08,260.35
766,7.7791666,4.5538891,Oshogbo,Nigeria,730529,713677,0.0236,16852,grew,11.92,26.05,278.2,159.25,39.34,2510.07
767,39.604,109.785,Ordos City,China,730229,706657,0.0334,23572,grew,8.35,13.88,124.27,30.03,56.51,247
768,26.958944,111.283087,Shaoyang,China,729522,713559,0.0224,15963,grew,36.24,45.24,78.98,60.82,33.26,560.76
769,9.172188,76.5008685,Kayamkulam,India,726675,694892,0.0457,31783,grew,4.11,6.68,69.59,55.33,103,574.11
770,46.8087794,130.3734556,Jiamusi,China,726622,715965,0.0149,10657,grew,1.52,6.51,6.64,4.37,68.67,323.77
771,12.8698101,74.8430082,Mangalore,India,724159,713357,0.0151,10802,grew,8.7,34.27,166.72,148.86,45.06,1161.58
772,34.6553944,133.9194595,Okayama,Japan,724157,724696,-0.0007,539,declined,1.37,10.88,7.03,5.05,67.95,347.14
773,-21.178333,-47.8066671,Ribeirao Preto,Brazil,724044,714111,0.0139,9933,grew,0.61,4.84,6.55,5.34,53.64,387.19
774,34.3075655,108.7234362,Xianyang Shaanxi,China,723612,715007,0.012,8605,grew,34.33,41.13,137.74,77.2,20.03,961.3
775,1.5557893,30.2519376,Bunia,DR Congo,723276,679418,0.0646,43858,grew,0.48,1.19,14.23,7.37,37.91,363.83
776,49.841952,24.0315921,Lviv,Ukraine,722476,723758,-0.0018,1282,declined,7.51,7.11,10.33,9.15,68.67,280.38
777,37.2793607,49.5846102,Rasht,Iran,722026,712715,0.0131,9311,grew,12.04,81.57,22.24,20.85,0.03,720.98
778,36.4794705,119.2129818,Anqiu,China,721402,682299,0.0573,39103,grew,73.43,61.01,68.33,47.43,25.03,687.6
779,43.6428995,122.2558324,Tongliao,China,720662,702280,0.0262,18382,grew,3.93,6.68,16.64,8.37,70.1,303.75
780,36.6421169,127.4891742,Cheongju,South Korea,720584,717027,0.005,3557,grew,27.18,25.36,15.61,11.8,47.21,373.84
781,32.4935378,74.5411575,Sialkot,Pakistan,720439,705121,0.0217,15318,grew,2.98,21.76,133.58,95.43,37.91,1214.98
782,9.7452286,-63.1799873,Maturin,Venezuela,717788,694716,0.0332,23072,grew,0.08,0.3,3.12,0.98,76.53,208.62
783,44.23052,-91.864325,Buffalo City,South Africa,717067,708559,0.012,8508,grew,1.01,3.43,3.83,3.35,73.67,287.06
784,26.5860102,101.7179276,Panzhihua,China,716878,707134,0.0138,9744,grew,51.5,50.04,39.43,31.07,20.92,620.84
785,30.5061493,105.574542,Suining Sichuan,China,716754,699679,0.0244,17075,grew,14.19,18.85,46.09,34.26,49.35,574.11
786,42.8888552,129.5008425,Yanji,China,716660,695165,0.0309,21495,grew,7.27,7.03,6.36,4.58,68.67,290.39
787,30.9474457,117.8057282,Tongling,China,715946,696639,0.0277,19307,grew,57.22,102.82,139.33,121.86,0.09,974.66
788,23.5715402,111.0139268,Wuzhou,China,715472,696630,0.027,18842,grew,6.02,38.73,121.87,118.81,9.21,841.14
789,17.0604663,-96.7253575,Oaxaca de Juarez,Mexico,714983,704559,0.0148,10424,grew,1.61,0.81,8.41,7.59,90.84,257.02
790,38.8950368,-77.0365427,Washington,United States,714153,709951,0.0059,4202,grew,11.21,55.52,25.61,21.99,27.18,507.36
791,32.0898005,72.6782574,Sargodha,Pakistan,712961,700095,0.0184,12866,grew,2.92,25.71,82.53,54.8,29.33,1014.71
792,21.7718836,72.1416449,Bhavnagar,India,711625,700367,0.0161,11258,grew,3.82,6.08,120.07,68.31,92.98,453.95
793,-28.0023731,153.4145987,Gold Coast,Australia,710650,699226,0.0163,11424,grew,0.49,1.15,3.57,1.32,38.98,213.62
794,36.5853932,109.4828549,Yan'an,China,710029,678619,0.0463,31410,grew,6.44,18.68,57.56,25.77,42.56,410.56
795,-12.8104186,28.2068361,Kitwe,Zambia,709854,685908,0.0349,23946,grew,31.95,9.17,41.71,29.33,6.08,1388.55
796,43.7698712,11.2555757,Florence,Italy,709064,708357,0.001,707,grew,3.61,57.58,36.51,34.63,0.04,1415.25
797,32.7185614,74.8580917,Jammu,India,708612,702085,0.0093,6527,grew,10.49,45.24,96.51,65.46,46.49,1028.06
798,38.2851657,109.7290619,Yulin Shaanxi,China,706571,695614,0.0158,10957,grew,2.3,10.45,119.39,33.39,51.5,260.35
799,19.169335,77.311013,Nanded Waghala,India,705667,689771,0.023,15896,grew,8.23,8.05,69.16,58.13,92.98,480.65
800,31.216036,107.5027564,Dazhou,China,705321,682342,0.0337,22979,grew,19.07,34.62,126.75,100.26,16.99,1201.63
801,13.6316368,79.4231711,Tirupati,India,704615,679456,0.037,25159,grew,5.48,18.34,98.21,80.29,61.51,714.3
802,14.4589855,120.9398889,Bacoor,Philippines,704334,686398,0.0261,17936,grew,30.04,48.67,62.3,37.53,10.55,1201.63
803,-9.535332,16.9364293,Malanje,Angola,704271,665150,0.0588,39121,grew,0.09,1.21,1.07,0.82,12.16,383.85
804,32.6880537,112.0818901,Dengzhou,China,703922,673626,0.045,30296,grew,17.17,48.67,169.42,110.98,7.15,1388.55
805,52.0799838,4.3113461,The Hague,Netherlands,703588,697564,0.0086,6024,grew,1.12,28.79,12.32,12.01,14.84,433.92
806,25.0767425,117.0123483,Longyan,China,703524,691987,0.0167,11537,grew,2.68,5.48,44.12,39.18,20.39,363.83
807,35.027637,111.002141,Yuncheng,China,703194,675082,0.0416,28112,grew,34.33,50.04,186.84,93.47,20.92,974.66
808,37.3886303,-5.9953403,Seville,Spain,702386,703790,-0.002,1404,declined,0.72,11.48,4.13,3.31,52.21,317.1
809,6.3676953,2.4252507,Cotonou,Benin,698868,691949,0.01,6919,grew,1.86,3.09,12.95,5.14,20.92,467.3
810,32.8536216,120.3122464,Dongtai,China,698218,676996,0.0313,21222,grew,27.18,63.06,89.14,71.71,10.91,894.55
811,53.51495,49.407574,Tolyatti,Russia,696889,700252,-0.0048,3363,declined,2.09,9.17,2.63,2.4,57.94,300.41
812,-25.1076701,-64.3494964,Salta,Argentina,696715,684751,0.0175,11964,grew,0.03,0.18,0.96,0.9,46.49,330.45
813,42.222633,-7.9049545,Merca,Somalia,696510,666370,0.0452,30140,grew,0.19,3.43,2.12,1.5,66.52,263.69
814,48.8588897,2.320041,Bali,Indonesia,695940,682065,0.0203,13875,grew,6.44,57.58,47.01,42.21,4.16,747.68
815,30.0393082,121.1501449,Yuyao,China,695704,678841,0.0248,16863,grew,173.57,116.53,116.13,90.23,0,1762.39
816,42.3602534,-71.0582912,Boston,United States,695506,694053,0.0021,1453,grew,3.22,10.45,3.05,2.42,81.54,303.75
817,-18.9188041,-48.2767837,Uberlandia,Brazil,695461,686896,0.0125,8565,grew,0.21,0.8,1.03,0.5,40.05,243.66
818,21.270278,40.415833,Taif,Saudi Arabia,694894,688693,0.009,6201,grew,31.47,19.88,45.25,26.44,74.39,243.66
819,30.9182867,111.9278808,Yuxi,China,693811,662863,0.0467,30948,grew,3.52,9.25,35.61,23.45,42.2,473.98
820,17.9640988,102.6133707,Vientiane,Laos,693594,682542,0.0162,11052,grew,4.65,30.85,120.99,109.1,33.98,2643.59
821,51.4538022,-2.5972985,Bristol,United Kingdom,693552,686210,0.0107,7342,grew,1.36,21.42,7.34,6.69,17.52,393.87
822,-9.0478679,-70.5264976,Akure,Nigeria,690533,665524,0.0376,25009,grew,0,0.01,0.5,0.5,1.86,210.29
823,14.1419291,44.1389849,Ibb,Yemen,690456,648889,0.0641,41567,grew,5.78,2.7,54.85,15.02,65.8,205.28
824,20.5218445,-100.8139609,Celaya,Mexico,689735,680971,0.0129,8764,grew,27.18,3.3,10.81,10.27,92.98,253.68
825,14.7978677,42.9544872,Al-Hudaydah,Yemen,689640,668899,0.031,20741,grew,1.22,1.36,37.75,9.24,82.25,257.02
826,36.8150283,127.1140654,Cheonan,South Korea,688543,679802,0.0129,8741,grew,24.56,19.71,13.3,9.16,57.22,333.79
827,-23.1887668,-46.884506,Jundiai,Brazil,688192,678521,0.0143,9671,grew,3.31,7.37,12.39,9.49,110.15,350.48
828,17.166667,77.083333,Gulbarga,India,687882,673027,0.0221,14855,grew,15.02,30.85,92.96,80.41,66.52,747.68
829,-12.6076318,15.7411039,Huambo,Angola,687795,671413,0.0244,16382,grew,0.47,1.03,6.64,1.83,26.82,323.77
830,45.4077172,11.8734455,Padova,Italy,687698,683604,0.006,4094,grew,2.86,52.09,56.75,50.54,0.06,1108.17
831,23.5350475,87.3380425,Durgapur,India,686568,675384,0.0166,11184,grew,26.94,43.87,143.22,105.87,47.92,1361.85
832,15.8309251,78.0425373,Kurnool,India,685818,665186,0.031,20632,grew,5.31,7.54,66.27,57.48,69.38,520.71
833,31.7754152,-106.464634,El Paso,United States,685434,683581,0.0027,1853,grew,0.43,0.73,21.85,4.98,104.43,220.3
834,47.2186371,-1.5541362,Nantes,France,685377,677766,0.0112,7611,grew,0.73,14.05,11.84,9.59,16.45,347.14
835,26.331667,43.971667,Buraydah,Saudi Arabia,684626,668775,0.0237,15851,grew,2.03,85,175.79,58.67,17.7,467.3
836,45.8131847,15.9771774,Zagreb,Croatia,684524,684878,-0.0005,354,declined,1.12,32.56,32.86,29.19,22.53,460.63
837,31.8782976,120.5514595,Zhangjiagang,China,683500,656036,0.0419,27464,grew,17.17,24.33,48.8,38.54,54.36,527.38
838,-0.0226903,109.3447488,Pontianak,Indonesia,680655,667910,0.0191,12745,grew,0.41,3.26,26.38,19.7,24.68,393.87
839,44.6173543,27.314991,Amara,Iraq,680156,655663,0.0374,24493,grew,1.15,9.94,19.49,13.78,55.79,353.81
840,50.6451381,5.5734203,Liege,Belgium,679895,677589,0.0034,2306,grew,2.12,52.09,21.35,18.51,1.39,467.3
841,31.4590371,121.1264772,Taicang,China,679623,654441,0.0385,25182,grew,7.87,10.63,19.91,15.33,79.39,337.12
842,36.1622767,-86.7742984,Nashville,United States,678448,674634,0.0057,3814,grew,1.64,23.31,14.51,12.37,14.48,473.98
843,44.40726,8.9338624,Genoa,Italy,677222,679613,-0.0035,2391,declined,0.97,42.84,56.32,54.72,0.51,1214.98
844,30.3925379,114.8898988,Ezhou,China,676600,668405,0.0123,8195,grew,30.99,91.85,179.95,159.49,1.22,1068.12
845,9.8694792,-83.7980749,Santiago,Dominican Republic,672272,664575,0.0116,7697,grew,0.18,1.36,1.73,0.94,32.19,173.57
846,-37.9977225,-57.5482703,Mar Del Plata,Argentina,672116,665707,0.0096,6409,grew,0.33,0.54,6.46,1.51,40.05,203.61
847,9.4051992,-0.8423986,Tamale,Ghana,671812,641911,0.0466,29901,grew,0.56,3.56,129.91,48.47,71.53,347.14
848,33.6306299,114.6423617,Zhoukou,China,671419,650060,0.0329,21359,grew,47.21,83.63,303.8,238.25,0,2323.15
849,51.7687323,19.4569911,Lodz,Poland,671395,676830,-0.008,5435,declined,29.8,22.96,23.37,19.27,54.36,410.56
850,-1.6665685,29.225652,Goma,DR Congo,670218,634197,0.0568,36021,grew,1.85,10.97,37.5,23.91,9.48,847.82
851,35.4729886,-97.5170536,Oklahoma City,United States,669347,662202,0.0108,7145,grew,0.69,6,6.33,6.17,60.8,300.41
852,35.5200185,35.7781044,Lattakia,Syria,668809,655714,0.02,13095,grew,0.31,0.3,1.34,1.01,110.15,273.71
853,36.1672559,-115.148516,Las Vegas,United States,667501,659410,0.0123,8091,grew,5.36,24.68,29.47,9.43,84.4,340.46
854,28.3251866,37.6328648,Tabuk,Saudi Arabia,667155,657277,0.015,9878,grew,1.24,2.44,131.07,35.85,89.41,233.65
855,32.7165184,108.9912989,Ankang,China,666656,636293,0.0477,30363,grew,6.74,12.34,48.66,34.63,55.79,580.79
856,6.112331,125.1717145,General Santos City,Philippines,665418,652723,0.0194,12695,grew,0.47,5.14,12.66,11.23,10.1,453.95
857,38.7063767,116.1062203,Renqiu,China,664262,640271,0.0375,23991,grew,80.11,106.93,126.02,81.08,1.81,1094.82
858,42.3315509,-83.0466403,Detroit,United States,664139,667085,-0.0044,2946,declined,7.27,21.42,7.69,5.79,61.51,353.81
859,26.2235041,50.5822436,Manama,Bahrain,663893,634508,0.0463,29385,grew,0.45,0.84,45.67,24.46,110.15,260.35
860,27.6995215,111.9890658,Loudi,China,663765,639167,0.0385,24598,grew,25.99,25.02,70.82,44.28,50.07,460.63
861,35.8242715,127.1480657,Jeonju,South Korea,663607,663145,0.0007,462,grew,13.71,18.51,9.03,6.64,57.94,313.76
862,27.2858633,105.2865997,Bijie,China,662697,637795,0.039,24902,grew,8.11,7.63,31.36,27.4,61.51,390.53
863,45.5202471,-122.6741949,Portland,United States,662549,658645,0.0059,3904,grew,3.04,10.37,5.19,3.86,90.12,313.76
864,13.0611195,5.3152203,Sokoto,Nigeria,662173,641249,0.0326,20924,grew,0.77,1.82,179.7,50.87,82.97,333.79
865,21.9647835,108.620787,Qinzhou,China,661953,644359,0.0273,17594,grew,8.82,18.34,79.42,76.93,27.9,714.3
866,22.1757605,113.5514142,Macao,Macau,661838,651875,0.0153,9963,grew,54.84,80.88,155.67,128.62,0.39,1228.33
867,41.2946149,36.3320596,Samsun,Turkey,660863,642592,0.0284,18271,grew,1.27,1.76,2.94,2.57,77.96,280.38
868,37.7733197,29.0869273,Denizli,Turkey,660643,644782,0.0246,15861,grew,5.31,12.85,16.04,14.13,65.09,320.44
869,29.9873344,122.2030363,Zhoushan,China,659777,647419,0.0191,12358,grew,7.15,13.02,44.65,35.67,61.51,480.65
870,45.6119057,8.8520522,Busto Arsizio,Italy,657698,654258,0.0053,3440,grew,5.25,55.52,59.84,55.76,0,1482.01
871,30.6316971,120.5610365,Tongxiang,China,656136,629527,0.0423,26609,grew,23.6,70.6,68.18,56.74,16.09,627.52
872,24.4490237,117.8132438,Longhai,China,655081,631203,0.0378,23878,grew,30.52,52.09,174.85,171.06,0,2136.23
873,35.7631348,115.0234071,Puyang,China,654261,632347,0.0347,21914,grew,58.17,76.08,130.37,92.65,8.76,1001.36
874,24.3705146,111.3590955,Hezhou,China,654185,625304,0.0462,28881,grew,10.01,30.5,130.41,126.55,20.21,727.65
875,25.5310311,78.652689,Jhansi,India,653879,642709,0.0174,11170,grew,3.67,5.48,62.11,47.92,94.41,447.27
876,29.5827203,105.0544575,Neijiang,China,653866,645874,0.0124,7992,grew,51.02,35.3,57.43,41.57,48.64,687.6
877,56.866557,53.2094166,Izhevsk,Russia,651601,651338,0.0004,263,grew,1.45,1.93,1.75,1.61,67.23,273.71
878,35.1490215,-90.0516285,Memphis,United States,651011,651042,0,31,declined,1.45,13.37,10.48,9.78,31.11,343.8
879,22.4732415,70.0552102,Jamnagar,India,650977,644738,0.0097,6239,grew,1.19,9.43,120.25,75.72,72.24,560.76
880,13.322312,43.252987,As-Suways,Egypt,649368,638229,0.0175,11139,grew,6.44,3.51,83.99,19.18,74.39,267.03
881,11.3692044,77.6766269,Erode,India,647988,634977,0.0205,13011,grew,9.54,22.28,132.82,111.61,87.26,727.65
882,25.2856329,51.5264162,Doha,Qatar,646177,641380,0.0075,4797,grew,27.42,27.76,102.35,52.87,100.14,343.8
883,20.1165413,-98.7413535,Pachuca de Soto,Mexico,646101,633453,0.02,12648,grew,14.54,1.95,32.66,29.53,191.69,494
884,31.8729183,121.1771295,Haimen,China,645598,626067,0.0312,19531,grew,10.25,10.37,20.6,15.32,76.53,367.17
885,41.7829291,129.7825241,Chongjin,North Korea,645488,642447,0.0047,3041,grew,1.27,2.31,1.02,0.63,80.11,267.03
886,-6.766417,-79.8408308,Chiclayo,Peru,645366,637255,0.0127,8111,grew,0.09,0.23,13.31,2.9,30.4,250.34
887,39.6540161,106.7879045,Wuhai,China,644895,630295,0.0232,14600,grew,24.8,33.59,83.55,24.41,32.54,293.73
888,47.3355856,130.2836718,Hegang,China,644894,638855,0.0095,6039,grew,2.83,5.74,6.91,5.98,72.96,323.77
889,18.2534658,109.5034392,Sanya,China,644727,625290,0.0311,19437,grew,2.18,11.14,35.31,32.16,5.45,400.54
890,31.2457442,34.7925181,Be'er Sheva,Israel,644278,637539,0.0106,6739,grew,5.19,8.14,5.54,2.41,80.11,233.65
891,24.833333,-104.833333,Durango,Mexico,642750,630982,0.0187,11768,grew,0.02,0.09,0.81,0.5,81.54,185.25
892,23.6579595,86.0839161,Bokaro Steel City,India,642145,633551,0.0136,8594,grew,9.54,14.05,104.79,75.23,73.67,741.01
893,51.1263106,16.9781963,Wroclaw,Poland,642085,641401,0.0011,684,grew,11.09,11.31,15.08,12.79,78.68,327.11
894,52.289597,104.280586,Irkutsk,Russia,641504,638843,0.0042,2661,grew,3.87,19.19,10.07,8.69,41.49,500.68
895,53.347402,83.7784496,Barnaul,Russia,640396,639783,0.001,613,grew,34.33,11.65,6.04,5.88,65.8,260.35
896,19.7540045,96.1344976,Nay Pyi Taw,Myanmar,639759,593596,0.0778,46163,grew,1.65,3.17,61.33,49.8,37.55,600.82
897,-20.1560599,28.5887063,Bulawayo,Zimbabwe,639722,638188,0.0024,1534,grew,3.37,3.38,53.1,51.71,5.81,393.87
898,28.8101339,113.0613336,Miluo,China,639015,604159,0.0577,34856,grew,61.99,108.3,146.17,121.08,0,1068.12
899,45.4371908,12.3345898,Venezia,Italy,638264,637245,0.0016,1019,grew,6.44,56.21,58.58,52.43,0,1161.58
